구명,대여소번호,대여소 주소,groups,위도,경도
강남구,2301,서울특별시 강남구 압구정로 134현대고등학교 건너편,5,37.524071,127.02179
강남구,2302,서울특별시 강남구 봉은사로 지하 102교보타워 버스정류장,45,37.505581,127.024277
강남구,2303,서울특별시 강남구 학동로 지하 102논현역 7번출구,54,37.511517,127.021477
강남구,2304,서울특별시 강남구 언주로 626신영 ROYAL PALACE앞,95,37.512527,127.035835
강남구,2305,서울특별시 강남구 언주로 734MCM 본사 직영점 앞,194,37.520641,127.034508
강남구,2306,서울특별시 강남구 압구정로 지하 172압구정역 2번 출구 옆,303,37.527122,127.02871699999999
강남구,2307,서울특별시 강남구 압구정로 321압구정 한양 3차 아파트,333,37.528614000000005,127.038559
강남구,2308,서울특별시 강남구 압구정로 311압구정파출소 앞,333,37.529301000000004,127.035599
강남구,2309,서울특별시 강남구 학동로 443강남구 청담동 77-76 (학동로 443 앞 도로),416,37.518902000000004,127.04938500000002
강남구,2310,서울특별시 강남구 학동로 지하 508청담동 맥도날드 옆,479,37.523613,127.040176
강남구,2311,서울특별시 강남구 학동로 지하 508학동로 래미안 아파트 앞,318,37.517773,127.043022
강남구,2312,서울특별시 강남구 영동대로 703청담역 13번 출구 앞,179,37.520579999999995,127.05632800000001
강남구,2313,서울특별시 강남구 도산대로 539금원빌딩,457,37.525116,127.052467
강남구,2314,서울특별시 강남구 영동대로128길 59청담나들목입구,179,37.521275,127.061035
강남구,2315,서울특별시 강남구 봉은사로 지하 601봉은사역 5번출구 옆,145,37.514247999999995,127.06111899999999
강남구,2317,서울특별시 강남구 영동대로112길 66삼성도로공원,145,37.515888000000004,127.0662
강남구,2318,서울특별시 강남구 봉은사로 531삼성중앙역4번출구(문화센터더 라빌),133,37.513577000000005,127.055031
강남구,2319,서울특별시 강남구 테헤란로 435포스코4거리 서측(수협 삼성동 지점),319,37.506607,127.05468
강남구,2320,서울특별시 강남구 남부순환로 지하 2814대치지구대 방향,237,37.491928,127.056969
강남구,2321,서울특별시 강남구 남부순환로 지하 3104학여울역 사거리,129,37.496117,127.06944299999999
강남구,2322,서울특별시 강남구 테헤란로 534삼성역 3번 출구,436,37.508091,127.063103
강남구,2323,서울특별시 강남구 영동대로 308주식회사 오뚜기 정문 앞,475,37.502213,127.06720700000001
강남구,2324,서울특별시 강남구 도곡로 540천주교 대치 2동 교회 옆,475,37.500439,127.066223
강남구,2325,서울특별시 강남구 도곡로 447대치동 버거킹대치점,407,37.49865,127.05931899999999
강남구,2326,서울특별시 강남구 삼성로 350대치동 삼성로,407,37.502396000000005,127.0588
강남구,2327,서울특별시 강남구 강남대로 308뱅뱅사거리 랜드마크타워 앞,465,37.490551,127.03146399999999
강남구,2328,서울특별시 강남구 언주로 506역삼지하보도 7번출구 앞,173,37.503586,127.04264099999999
강남구,2329,서울특별시 강남구 테헤란로 지하 156역삼역 지하보도 2번출구,173,37.502357,127.04319
강남구,2330,서울특별시 강남구 도곡로 183스타벅스 앞,334,37.492199,127.03945900000001
강남구,2331,서울특별시 강남구 언주로 337동영문화센터앞,139,37.498051000000004,127.044601
강남구,2332,서울특별시 강남구 선릉로 435선릉역 3번출구,209,37.504208,127.048965
강남구,2333,서울특별시 강남구 강남대로 240양재역 3번출구 주변,445,37.485157,127.03407299999999
강남구,2334,서울특별시 강남구 선릉로 지하 2288.삼호@ 2동 ( 간선도로),139,37.493759000000004,127.045898
강남구,2335,서울특별시 강남구 남부순환로 27483호선 매봉역 3번출구앞,267,37.486767,127.046761
강남구,2336,서울특별시 강남구 선릉로 지하 228강남세브란스교차로  래미안그레이튼 104동 앞,139,37.494236,127.04746200000001
강남구,2337,서울특별시 강남구 영동대로 101대모산입구역 2번출구 앞,132,37.492077,127.071976
강남구,2339,서울특별시 강남구 언주로 107현대아파트 정문 앞,495,37.483261,127.052299
강남구,2340,서울특별시 강남구 논현로 82삼호물산버스정류장(23370) 옆,420,37.477509000000005,127.045174
강남구,2341,서울특별시 강남구 일원로 127일원역 45번 출구사이,58,37.483311,127.084938
강남구,2342,서울특별시 강남구 개포로 623대청역1번출구 뒤,469,37.494007,127.07951399999999
강남구,2343,서울특별시 강남구 헌릉로 623세곡사거리 대왕파출소 앞,140,37.465317,127.107727
강남구,2344,서울특별시 강남구 헌릉로590길 10리엔파크 2단지 앞,140,37.465061,127.101196
강남구,2347,서울특별시 강남구 언주로 726두산건설 본사,194,37.518639,127.0354
강남구,2348,서울특별시 강남구 테헤란로 501포스코사거리(기업은행),319,37.507233,127.056854
강남구,2349,서울특별시 강남구 테헤란로 지하 156역삼빌딩,173,37.501545,127.03856699999999
강남구,2350,서울특별시 강남구 선릉로69길 19102동 앞,139,37.494823,127.047905
강남구,2351,서울특별시 강남구 광평로 144청소년 수련관 수영장 앞,58,37.483878999999995,127.089027
강남구,2352,서울특별시 강남구 언주로 721서울본부세관(건설회관 앞),194,37.517590000000006,127.035027
강남구,2353,서울특별시 강남구 학동로 342강남구청역 2번출구 뒤,318,37.516811,127.040474
강남구,2354,서울특별시 강남구 영동대로 647청담역 2번출구,179,37.519787,127.05676299999999
강남구,2355,서울특별시 강남구 봉은사로 524삼성역 5~6번 출구,436,37.509121,127.06230900000001
강남구,2356,서울특별시 강남구 학동로 지하 346강남구청,416,37.51807,127.047119
강남구,2357,서울특별시 강남구 언주로89길 7더 오번 빌딩 명동칼국수 앞,173,37.501948999999996,127.04276999999999
강남구,2358,서울특별시 강남구 개포로 30310동 앞,495,37.481384000000006,127.053917
강남구,2359,서울특별시 강남구 논현로10길 29국립국악중고교 정문 맞은편,248,37.475605,127.050377
강남구,2360,서울특별시 강남구 도곡로 205도곡1동 주민센터 교차로,334,37.492809,127.041389
강남구,2361,서울특별시 강남구 신사동 580-7압구정역 교차로,303,37.526844,127.028259
강남구,2362,서울특별시 강남구 신사동 501-5신사동 가로수길 입구,5,37.517635,127.022453
강남구,2363,서울특별시 강남구 도산대로 172 강남 을지병원 교차로,5,37.51918,127.02746599999999
강남구,2364,서울특별시 강남구 도산대로 229 도산대로 렉서스 앞,194,37.52124,127.031898
강남구,2365,서울특별시 강남구 도산대로 333 K+ 타워 앞,479,37.5233,127.038475
강남구,2368,서울특별시 강남구 도곡동 874-1도곡동 경남아파트 건너편,334,37.489342,127.041298
강남구,2369,서울특별시 강남구 대치동 1011KT선릉타워,319,37.505428,127.052872
강남구,2370,서울특별시 강남구 대치동 1026한티역 3번출구,237,37.496552,127.054298
강남구,2371,서울특별시 강남구 언주로 651한국우편사업진흥원,95,37.514748,127.035133
강남구,2372,서울특별시 강남구 삼성로 156 대치역 사거리,129,37.494499,127.063797
강남구,2373,서울특별시 강남구 개포동 181-3개포동역 사거리,494,37.489277,127.065575
강남구,2375,서울특별시 강남구 수서동 728수서역 1번출구 앞,337,37.48735,127.100998
강남구,2376,서울특별시 강남구 수서동 740수서역 6번출구 앞,337,37.486778,127.100517
강남구,2377,서울특별시 강남구 수서동 724-4수서역 5번출구 뒤,337,37.486835,127.102753
강남구,2380,서울특별시 강남구 봉은사로 456삼성동베이직하우스앞,133,37.511696,127.049347
강남구,2381,서울특별시 강남구 논현로 566언주역 6번출구앞,53,37.506367,127.034523
강남구,2382,서울특별시 강남구 역삼로 315-1역삼동 sk뷰 501동 앞,209,37.501343,127.050468
강남구,2383,서울특별시 강남구 헌릉로569길 39-6보금자리정원,76,37.466328000000004,127.09488700000001
강남구,2384,서울특별시 강남구 밤고개로 206자곡사거리,29,37.476028,127.105942
강남구,2385,서울특별시 강남구 학동로 지하 180학동역,95,37.51395,127.030151
강남구,2386,서울특별시 강남구 봉은사로 지하 201sk 동우주유소 앞,53,37.509586,127.04090900000001
강남구,2387,서울특별시 강남구 자곡로 101래미안강남힐즈 사거리,76,37.472454,127.09607700000001
강남구,2388,서울특별시 강남구 삼성로 628강남구 도시관리공단,416,37.516785,127.05161299999999
강남구,2389,서울특별시 강남구 개포로 지하 420경기여자고등학교 후문 (삼성로3길 입구),494,37.48616,127.06723799999999
강남구,2390,서울특별시 강남구 양재대로 478구룡마을 입구 (래미안블레스티지 아파트),355,37.479568,127.064774
강남구,2391,서울특별시 강남구 양재대로 478구룡마을 입구(개포1단지아파트),355,37.479328,127.064278
강남구,2392,서울특별시 강남구 양재대로 379구룡산 입구 (구룡산 서울둘레길 입구),148,37.474579,127.05545
강남구,2393,서울특별시 강남구 논현로2길 6구룡사 앞 교차로 (보도육교),248,37.472,127.05133799999999
강남구,2394,서울특별시 강남구 언주로 21래미안강남포레스트 입구 (보도육교),148,37.479092,127.055397
강남구,2395,서울특별시 강남구 개포로 310개포1단지아파트 입구 (보도육교),148,37.47929,127.055733
강남구,2396,서울특별시 강남구 언주로 118영동3교 북단(우성캐릭터 앞 보도),267,37.485741,127.051048
강남구,2398,서울특별시 강남구 언주로 564더라움,53,37.508109999999995,127.039452
강남구,2401,서울특별시 강남구 일원로 90밀알학교 입구 (삼성서울병원 입구),58,37.486561,127.082672
강남구,2403,서울특별시 강남구 영동대로4길 10공무원연금매점 교차로 (개포주공9단지 입구),132,37.48872,127.07453899999999
강남구,2404,서울특별시 강남구 개포로 지하 522대모산입구역 4번 출구 앞,132,37.49181,127.073158
강남구,2405,서울특별시 강남구 학동로 지하 346청담공원앞 교차로,416,37.518710999999996,127.05085
강남구,2406,서울특별시 강남구 도산대로 138논현동 광명빌딩 앞,5,37.51757,127.02364299999999
강남구,2407,서울특별시 강남구 강남대로 지하 396역삼.서초.삼성 세무서 앞 (역삼빌딩 앞),161,37.498470000000005,127.03011299999999
강남구,2408,서울특별시 강남구 자곡로 260강남한양수자인아파트,29,37.477340999999996,127.113274
강동구,1001,서울특별시 강동구 구천면로 171376 남단사거리,49,37.541805,127.12471799999999
강동구,1002,서울특별시 강동구 올림픽로 702265,49,37.545219,127.12591599999999
강동구,1003,서울특별시 강동구 올림픽로 702367,49,37.543915000000005,127.12545800000001
강동구,1004,서울특별시 강동구 상암로3길 77암사동 534,210,37.553349,127.12886
강동구,1006,서울특별시 강동구 양재대로 1665명일동 304,321,37.55492,127.142799
강동구,1007,서울특별시 강동구 올림픽로 875암사동 139-2,210,37.559063,127.130646
강동구,1008,서울특별시 강동구 올림픽로 지하 776암사동 555,49,37.549549,127.127151
강동구,1009,서울특별시 강동구 천호대로 지하 997성내동 62-1,249,37.538658,127.124214
강동구,1010,서울특별시 강동구 천호대로 1139길동 467,220,37.534481,127.13834399999999
강동구,1011,서울특별시 강동구 천호대로 1120성내동 450-31,220,37.534771,127.13523899999998
강동구,1012,서울특별시 강동구 올림픽로 610성내동 93-34,249,37.536026,127.122726
강동구,1013,서울특별시 강동구 올림픽로 지하 5501번 출입구,51,37.530772999999996,127.120926
강동구,1014,서울특별시 강동구 고덕로 295명일동 320-2,142,37.5508,127.142624
강동구,1015,서울특별시 강동구 구천면로 431-2샛마을 근린공원,142,37.550079,127.14691200000001
강동구,1016,서울특별시 강동구 상일로 152강일동 607-14,17,37.559399,127.171158
강동구,1017,서울특별시 강동구 천호대로 1207맥도날드(길동),63,37.535472999999996,127.145172
강동구,1018,서울특별시 강동구 양재대로 1330둔촌동 541-6,406,37.524681,127.135406
강동구,1019,서울특별시 강동구 성내로 91다성이즈빌아파트(호원대 대각선 맞은편),332,37.526825,127.130028
강동구,1020,서울특별시 강동구 성내로 57강동경찰서,332,37.528290000000005,127.126801
강동구,1021,서울특별시 강동구 아리수로 419강일동 306-7,122,37.564301,127.17395
강동구,1022,서울특별시 강동구 양재대로 1441성내동 379-41,220,37.533764,127.13803100000001
강동구,1023,서울특별시 강동구 상일동 504 상일동 삼성엔지니어링 앞,345,37.549999,127.17468999999998
강동구,1024,서울특별시 성내동 546-3 강동구청 앞,51,37.529251,127.123108
강동구,1025,서울특별시  상일동 440-3상일초등학교,345,37.546841,127.17251599999999
강동구,1026,서울특별시 명일동 59대명초교 입구 교차로,422,37.546631,127.15588400000001
강동구,1027,서울특별시 길동 176-3프라자 아파트 앞,63,37.535999,127.147697
강동구,1028,서울특별시 성내동 119-2포레스 주상복합 빌딩,51,37.5331,127.12278
강동구,1029,서울특별시 성내동  44-1롯데 시네마,249,37.536541,127.12539699999999
강동구,1030,서울특별시 성내동 478미호 플랜트 앞,51,37.527060999999996,127.12207
강동구,1031,서울특별시 암사동 440-13암사동 CBIS,210,37.555851000000004,127.129898
강동구,1032,서울특별시 암사동 445선사고등학교,411,37.556728,127.13620800000001
강동구,1033,서울특별시 고덕동 673고덕동 아남아파트,321,37.557990999999994,127.14470700000001
강동구,1034,서울특별시 고덕동 603고덕동 래미안 힐스테이트,256,37.561909,127.150749
강동구,1035,서울특별시 명일동 46-5고덕역 4번출구,160,37.555015999999995,127.155273
강동구,1036,서울특별시 명일동 48-2고덕동 주양쇼핑,160,37.551998,127.153297
강동구,1037,서울특별시 강일동 448-2강일 6단지,197,37.562588,127.17761200000001
강동구,1038,서울특별시 강일동 333-2강일 다솜 어린이 공원,122,37.568668,127.174797
강동구,1039,서울특별시 고덕동 215고덕초등학교,17,37.561279,127.167801
강동구,1040,서울특별시 고덕동 375강일동 에너지 마루,149,37.5672,127.16346000000001
강동구,1041,서울특별시 고덕동 499-2묘곡초등학교,256,37.559196,127.153297
강동구,1042,서울특별시 강일동 63-20강일 2.5단지 사이,122,37.568562,127.177002
강동구,1044,서울특별시  양재대로 1572굽은다리역,142,37.545398999999996,127.142601
강동구,1047,서울특별시 강동구 천호대로175길 39건강보험 강동지사kt,220,37.536381,127.137253
강동구,1048,서울특별시 강동구 진황도로 172동부기업,63,37.531013,127.14236499999998
강동구,1049,서울특별시 강동구 고덕로97길 20강일동 10단지 아파트,197,37.56118,127.18026699999999
강동구,1050,서울특별시 강동구 양재대로 1355둔촌역 3번 출입구,406,37.526695000000004,127.135529
강동구,1051,서울특별시 강동구 고덕로 109양지시장 (용성약국앞) 입구,411,37.554829,127.137321
강동구,1052,서울특별시 강동구 동남로 930리싸이클시티,160,37.556469,127.15682199999999
강동구,1053,서울특별시 강동구 아리수로 324동명근린공원 진입로 (아리수로),149,37.562538,127.164528
강동구,1054,서울특별시 강동구 상일로21길 14-7말우물 어린이 공원,17,37.560009,127.169579
강동구,1056,서울특별시 강동구 아리수로98길 25강일리엔파크 7~11단지,197,37.563332,127.179092
강동구,1057,서울특별시 강동구 상일로12길 60능골근린공원,17,37.55579,127.173813
강동구,1058,서울특별시 강동구 고덕로80길 134고덕숲 아이파크,313,37.553471,127.165001
강동구,1059,서울특별시 강동구 천호대로 1077레미안 강동팰리스(102동),499,37.538181,127.131752
강동구,1060,서울특별시 강동구 구천면로 275천일초교 사거리,331,37.544659,127.13263700000002
강동구,1061,서울특별시 강동구 구천면로 304일주빌딩,331,37.546928,127.134621
강동구,1062,서울특별시 강동구 고덕로80길 134고덕숲 아이파크,313,37.551079,127.162621
강북구,1501,서울특별시 강북구 도봉로 196미아역 34번 출구 사이,450,37.62608,127.026482
강북구,1503,서울특별시 강북구 도봉로 355이다야 커피 수유점앞,23,37.639278000000004,127.026756
강북구,1504,서울특별시 강북구 삼양로 234다이소 삼양시장점,34,37.624157000000004,127.018623
강북구,1506,서울특별시 강북구 삼각산로 85강북문화예술회관,189,37.640327,127.01335900000001
강북구,1509,서울특별시 강북구 한천로 935번동 386-17,110,37.634377,127.035751
강북구,1510,서울특별시 강북구 오현로25마길 27번동 230,110,37.633717,127.03551499999999
강북구,1511,서울특별시 강북구 오현로31길 85-7번동 656-2,110,37.631122999999995,127.03603400000001
강북구,1512,서울특별시 강북구 한천로150길 67수유동 694-2,378,37.644737,127.02656599999999
강북구,1513,서울특별시 강북구 도봉로89길 13수유동 192-59,23,37.639671,127.0252
강북구,1514,서울특별시 강북구 한천로 1009강북구청 사거리 버스정류소,23,37.638805,127.02835800000001
강북구,1515,서울특별시 강북구 솔샘로 284송천동 주민센터,282,37.618286,127.024048
강북구,1516,서울특별시 강북구 삼양로99길 33우이초등학교 후문 옆,189,37.638706,127.01590700000001
강북구,1518,서울특별시 강북구 삼양로 439SK telecom(수유직영점),189,37.643085,127.016167
강북구,1519,서울특별시 강북구 삼양로 474수유동 317-3,189,37.645451,127.01561699999999
강북구,1520,서울특별시 강북구 노해로 50수유동 140,23,37.639862,127.02278899999999
강북구,1522,서울특별시 도봉구 삼양로 574우이동 100-13,71,37.654472,127.01275600000001
강북구,1525,서울특별시 강북구 솔매로49길 14미아동 195-1,450,37.627140000000004,127.02669499999999
강북구,1526,서울특별시 강북구 수유동 140수유동 채선당앞,23,37.641739,127.024628
강북구,1527,서울특별시 강북구 미아동 194-1미아역 1번 출구 뒤,450,37.627334999999995,127.026054
강북구,1528,서울특별시 미아동 813-8삼각산동 주민센터,282,37.615035999999996,127.020699
강북구,1529,서울특별시 미아동 194-1미아동 한국전력공사,450,37.630179999999996,127.02491
강북구,1530,서울특별시 강북구 노해로 87 광산사거리,23,37.643551,127.022346
강북구,1531,서울특별시 강북구 미아동 66-1미아사거리 1번 출구,22,37.613956,127.030251
강북구,1532,서울특별시 강북구 번동 2-2번3동 주민센터 교차로,270,37.626354,127.04744699999999
강북구,1533,서울특별시 강북구 번동 254번동 주공3 4단지 교차로,430,37.629917,127.040916
강북구,1534,서울특별시 강북구 번동 105북서울 꿈의 숲 동문,391,37.619637,127.044533
강북구,1535,서울특별시 수유동 230-7효성인텔리안 앞,23,37.636292,127.023376
강북구,1536,서울특별시 번동 386-17번동 두산위브 101동 옆,110,37.636261,127.032173
강북구,1537,서울특별시 강북구 삼양로 670북한산 우이역,327,37.663666,127.012428
강북구,1538,서울특별시 강북구 삼양로 595솔밭공원역,71,37.656158000000005,127.01313799999998
강북구,1539,서울특별시 강북구 삼양로 5194.19민주묘지역,71,37.649673,127.013451
강북구,1540,서울특별시 강북구 삼양로 426가오리역,189,37.64167,127.016884
강북구,1541,서울특별시 강북구 삼양로 263삼양역,34,37.626529999999995,127.01805900000001
강북구,1542,서울특별시 강북구 삼양로 197삼양사거리역,34,37.621552,127.02037
강북구,1543,서울특별시 강북구 삼양로 299수유1동 주민센터,34,37.630188000000004,127.017738
강북구,1545,서울특별시 강북구 솔샘로 195솔샘역 2번 출구,441,37.62038,127.01368000000001
강북구,1546,서울특별시 강북구 도봉로 71송천동우체국,22,37.615459,127.029701
강서구,1101,서울특별시 강서구 개화동로5길 3-8강서구 개화동 424-2,470,37.581612,126.798599
강서구,1102,서울특별시 강서구 양천로17길 6강서구 방화동 769-23,276,37.573643,126.811806
강서구,1103,서울특별시 강서구 금낭화로 135강서구 방화동 829-8,276,37.577221,126.81219499999999
강서구,1105,서울특별시 강서구 금낭화로 176강서구 방화동 855,466,37.581623,126.812653
강서구,1106,서울특별시 강서구 방화대로 342신방화 사거리,276,37.573032,126.816452
강서구,1108,서울특별시 강서구 방화동로 지하 30강서구 방화동 612-249,283,37.563559999999995,126.81015
강서구,1109,서울특별시 강서구 방화동로 지하 30강서구 공항동 산20-2,283,37.563347,126.81048600000001
강서구,1110,서울특별시 강서구 방화대로 241공항중학교 앞,348,37.562683,126.81623799999998
강서구,1111,서울특별시 강서구 마곡중앙5로 58강서구 마곡동 743-3,203,37.566982,126.8218
강서구,1112,서울특별시 강서구 마곡서로 175강서구 마곡동 754-6,203,37.568577000000005,126.824776
강서구,1113,서울특별시 강서구 양천로 201강서구 마곡동 222-30,359,37.573093,126.82289899999999
강서구,1114,서울특별시 강서구 양천로 200강서구 마곡동 223-6,359,37.572781,126.826279
강서구,1115,서울특별시 강서구 공항대로59길 8강서구 등촌동 666-90,78,37.551666,126.86408999999999
강서구,1117,서울특별시 강서구 공항대로 329강서구 등촌동 675-7,90,37.558197,126.84426100000002
강서구,1118,서울특별시 강서구 양천로 지하 560강서구 등촌동 666-40,87,37.557460999999996,126.86145800000001
강서구,1119,서울특별시 강서구 양천로 637강서구 염창동 284-18,78,37.554253,126.86756100000001
강서구,1120,서울특별시 강서구 허준로 121강서구 가양동 1475-2,121,37.565189000000004,126.853996
강서구,1121,서울특별시 강서구 양천로61길 101강서구 가양동 1484-5,87,37.559478999999996,126.86438000000001
강서구,1122,서울특별시 강서구 허준로 221-40강서구 가양동 1485-5,87,37.561932,126.863869
강서구,1124,서울특별시 강서구 공항대로 280강서구 내발산동 645-1,48,37.557968,126.83828700000001
강서구,1125,서울특별시 강서구 강서로 304강서구 내발산동 724-42,264,37.552914,126.83657099999999
강서구,1126,서울특별시 강서구 강서로 지하 262강서구 화곡동 1159-6,264,37.548908000000004,126.83656299999998
강서구,1127,서울특별시 강서구 화곡로 157강서구 화곡동 1089-52,493,37.540981,126.83854699999999
강서구,1129,서울특별시 강서구 화곡로 지하 168강서구 화곡동 1089-43,493,37.542099,126.840218
강서구,1130,서울특별시 강서구 화곡로 196강서구 화곡동 109-12,180,37.542751,126.842621
강서구,1131,서울특별시 강서구 화곡로 232강서구 화곡동 94-6,180,37.546444,126.845459
강서구,1132,서울특별시 강서구 공항대로 지하 529강서구 등촌동 505-3,78,37.551109000000004,126.863708
강서구,1135,서울특별시 강서구 등촌로 185강서구 등촌동 608-4,472,37.546532,126.862549
강서구,1136,서울특별시 강서구 등촌로 167강서구 등촌동 608-6,472,37.544788,126.86200000000001
강서구,1137,서울특별시 강서구 등촌로 143강서구 등촌동 577,104,37.541431,126.86322
강서구,1139,서울특별시 강서구 등촌로 95강서구 등촌동 579,104,37.536991,126.86336499999999
강서구,1140,서울특별시 강서구 등촌로 19강서구 화곡동 939-3,361,37.531399,126.86360900000001
강서구,1141,서울특별시 강서구 강서로5길 50강서구 화곡동 941-2,314,37.52906,126.84848000000001
강서구,1145,서울특별시 강서구 강서로5길 50강서구 화곡동 941-2,314,37.528919,126.848083
강서구,1146,서울특별시 강서구 곰달래로 51355-48,440,37.530338,126.83825700000001
강서구,1148,서울특별시 강서구 까치산로4길 22강서구 화곡동 98-148,180,37.541470000000004,126.84478
강서구,1149,서울특별시 강서구 마곡서1로 111-12신방화역환승주차장,203,37.567284,126.818275
강서구,1150,서울특별시 강서구 공항대로3길 18송정역 1번출구,283,37.56155,126.810478
강서구,1151,서울특별시 강서구 마곡동 727-716마곡역2번출구,103,37.560234,126.823471
강서구,1152,서울특별시 강서구 마곡동 728-168마곡역7번출구,103,37.558665999999995,126.82661399999999
강서구,1153,서울특별시 강서구 공항대로 281발산역 4번출구,48,37.55891,126.83809699999999
강서구,1155,서울특별시 강서구 가양동 1458-15 기쁜우리복지관,390,37.56926,126.84841899999999
강서구,1157,서울특별시 강서구 화곡로 302강서구청,47,37.550659,126.84976999999999
강서구,1158,서울특별시 강서구 양천로 지하 485가양역 8번출구,121,37.561035,126.854813
강서구,1159,서울특별시 강서구 양천로53길 30서서울모터리움앞,390,37.565853000000004,126.84659599999999
강서구,1160,서울특별시 강서구 양천로 지하 341양천향교역 7번출구 앞,168,37.567679999999996,126.840897
강서구,1161,서울특별시 강서구 남부순환로 171강서면허시험장앞,488,37.549694,126.81966399999999
강서구,1162,서울특별시 강서구 마곡서1로 68공항초등학교건너편,348,37.562678999999996,126.82047299999999
강서구,1163,서울특별시 강서구 방화대로34길 65방화동 강서기동대앞,203,37.570499,126.82008400000001
강서구,1165,서울특별시 강서구 마곡중앙5로 58마곡중학교 후문,203,37.568447,126.821648
강서구,1166,서울특별시 강서구 강서로62길 48강서구립등빛도서관,90,37.562569,126.84246100000001
강서구,1167,서울특별시 강서구 수명로 72마곡수명산파크3단지 교차로,351,37.553467,126.825928
강서구,1168,서울특별시 강서구 마곡중앙1로 72마곡엠밸리10단지 앞,348,37.560226,126.819069
강서구,1169,서울특별시 강서구 공항대로 625염창역 1번 출구,272,37.547199,126.87448899999998
강서구,1170,서울특별시 강서구 공항대로 571강서구보건소 (삼성디지털 프라자),78,37.549178999999995,126.868797
강서구,1171,서울특별시 강서구 양천로 696염창동 새마을금고 건너편 (모닝글로리),272,37.550049,126.87316100000001
강서구,1172,서울특별시 강서구 허준로 202가양3동 주민센터,87,37.561249,126.86058
강서구,1173,서울특별시 강서구 공항대로 411강서구청사거리(SH타워),47,37.556259000000004,126.85331699999999
강서구,1174,서울특별시 강서구 공항대로 395강서구청사거리(부민병원),47,37.556599,126.85147099999999
강서구,1175,서울특별시 강서구 공항대로 453대한항공 인력개발센터,474,37.554379,126.85753600000001
강서구,1177,서울특별시 강서구 수명로1길 16마곡수명산파크4단지아파트 401동 앞,351,37.55011,126.823677
강서구,1178,서울특별시 강서구 양천로 22개화산역 2번 출구,403,37.572472,126.806168
강서구,1180,서울특별시 강서구 마곡중앙로 36마곡엠밸리 15단지(1502동) 건너편,103,37.557468,126.82972
강서구,1181,서울특별시 강서구 발산로 40농산식품공사 (강서지사),488,37.551044,126.818497
강서구,1182,서울특별시 강서구 공항대로 376KBS 스포츠월드,47,37.556877,126.848808
강서구,1184,서울특별시 강서구 방화대로7길 6마곡13단지,397,37.55645,126.815979
강서구,1185,서울특별시 강서구 화곡로63가길 92등촌9단지,121,37.562901000000004,126.84947199999999
강서구,1186,서울특별시 강서구 방화대로5길 7송정중학교,397,37.554728999999995,126.816093
강서구,1188,서울특별시 강서구 마곡중앙로 201롯데중앙연구소,359,37.571381,126.82833899999999
강서구,1190,서울특별시 강서구 공항대로 지하 163마곡역 교차로(2번출구),103,37.560501,126.82665300000001
강서구,1191,서울특별시 강서구 마곡중앙로 76힐스테이트에코마곡역,103,37.560241999999995,126.827164
강서구,1194,서울특별시 강서구 마곡중앙8로3길 21케이티엔에프빌딩 인근,48,37.563301,126.836823
강서구,1195,서울특별시 강서구 마곡동로 110코오롱글로벌㈜,48,37.564129,126.83431200000001
강서구,1196,서울특별시 강서구 마곡동로 161서울식물원(문화센터) 건너편,168,37.568241,126.835831
강서구,1197,서울특별시 강서구 강서로 247엘펠리체 호텔 건너편,48,37.560429,126.835403
강서구,1198,서울특별시 강서구 마곡중앙10로 10LG 사이언스파크,103,37.56255,126.82743799999999
관악구,2102,서울특별시 관악구 관천로 52관악구 신림동 1433-150,38,37.48423,126.92639199999999
관악구,2103,서울특별시 관악구 관천로27길 2신사동 우방아파트,50,37.489178,126.919273
관악구,2104,서울특별시 동작구 남부순환로 지하 2089관악구 남현동 1060-12,3,37.476089,126.98133100000001
관악구,2105,서울특별시 관악구 난곡로 295관악구 신림동 1475-64,254,37.480251,126.914604
관악구,2106,서울특별시 관악구 난곡로 210관악구 신림동 614-25,482,37.473728,126.91840400000001
관악구,2107,서울특별시 관악구 신림로 40관악구 신림동 808-133,346,37.475471,126.93645500000001
관악구,2108,서울특별시 관악구 봉천로 375관악구 봉천동 975-18,120,37.483340999999996,126.94319899999999
관악구,2109,서울특별시 양천구 가로공원로 지하 133관악구 봉천동 962,150,37.486225,126.935829
관악구,2110,서울특별시 관악구 시흥대로 560조원동 미성아파트,156,37.483191999999995,126.90203100000001
관악구,2111,서울특별시 관악구 남부순환로 1830서울대입구역1번출구,212,37.480869,126.95331599999999
관악구,2112,서울특별시 관악구 남부순환로 지하 1822관악구 봉천동 979-2,212,37.481339,126.950645
관악구,2113,서울특별시 관악구 신사로 7동작관악견인차량보관소,156,37.484660999999996,126.9039
관악구,2115,서울특별시 관악구 남부순환로 1369관악구 신림동 1674-8,156,37.479915999999996,126.90284
관악구,2116,서울특별시 관악구 남부순환로 지하 1822관악구 봉천동 979-2,212,37.481705,126.950829
관악구,2119,서울특별시 관악구 관악로 217동진빌딩 앞,212,37.484257,126.954697
관악구,2122,서울특별시 관악구 남부순환로 1889관악구 봉천동 1693-38,52,37.478058000000004,126.960495
관악구,2127,서울특별시 관악구 난곡로 99관악구 신림동 666-30,316,37.464886,126.91947900000001
관악구,2128,서울특별시 관악구 관악로 153관악구 봉천동 979-3,212,37.479164000000004,126.952583
관악구,2129,서울특별시 관악구 낙성대로 101관악구 봉천동 244-1,341,37.469055,126.958145
관악구,2130,서울특별시 관악구 낙성대로 70관악구 봉천동 274-4,341,37.47197,126.95876299999999
관악구,2135,서울특별시 관악구 남부순환로 지하 1614관악구 신림동 1467-10,38,37.484409,126.928909
관악구,2136,서울특별시 관악구 신림로 340신림역 7번출구,38,37.484577,126.92991599999999
관악구,2137,서울특별시 관악구 남부순환로 1675관악구 봉천동 979-9,150,37.484901,126.936531
관악구,2139,서울특별시 관악구 신림로 114서울신성초등학교,346,37.471165,126.93701899999999
관악구,2140,서울특별시 관악구 신림로 270관악구 신림동 808-263,498,37.478428,126.93186200000001
관악구,2141,서울특별시 관악구 신림로 137관악구 신림동 289-3,346,37.472294,126.933411
관악구,2143,서울특별시 관악구 신림로 67관악구 신림동 226-2,25,37.470695,126.9422
관악구,2144,서울특별시 관악구 문성로 115관악구 신림동 산 197-60,254,37.477776,126.916756
관악구,2145,서울특별시 관악구 은천로 69관악구 봉천동 982-2,260,37.486359,126.942924
관악구,2148,서울특별시 관악구 남부순환로 지하 1928봉천동 1693-39,52,37.477028000000004,126.963394
관악구,2153,서울특별시 관악구 남부순환로163가길 20신림동 483-14,50,37.485141999999996,126.92056299999999
관악구,2156,서울특별시 금천구 남부순환로 1428관악농협 문성지점,166,37.480721,126.909325
관악구,2157,서울특별시 관악구 난곡로 317신림동 538,254,37.4818,126.915237
관악구,2159,서울특별시 관악구 봉천동 244-1 인헌초교,52,37.47509,126.95922900000001
관악구,2160,서울특별시 관악로 145관악구 보건소,212,37.478626,126.95129399999999
관악구,2164,서울특별시 관악구 남부순환로 1641관악우체국,150,37.484768,126.932877
관악구,2165,서울특별시 관악구 남부순환로 1943JK장평타워,52,37.476482,126.96536299999998
관악구,2167,서울특별시 관악구 남부순환로 1944낙성대역 1번출구,52,37.476295,126.96495800000001
관악구,2169,서울특별시 관악구 남부순환로 1728봉천역 2번출구,120,37.482189,126.942131
관악구,2170,서울특별시 관악구 남부순환로 1451조원동서울본병원,166,37.481528999999995,126.91203300000001
관악구,2171,서울특별시 관악구 남부순환로 1817서울대입구역 5번출구,212,37.481548,126.952003
관악구,2172,서울특별시 관악구 신림로 41나들목공원,25,37.469406,126.944511
관악구,2173,서울특별시 관악구 보라매로 3당곡사거리,38,37.48975,126.927467
관악구,2174,서울특별시 관악구 신림로 386삼성디지털프라자관악점,38,37.488564000000004,126.928482
관악구,2175,서울특별시 관악구 신림로 369신림동걷고싶은문화의거리입구,38,37.487301,126.928703
관악구,2176,서울특별시 관악구 신사로 132보라매공원 보도육교,50,37.488991,126.91638200000001
관악구,2177,서울특별시 관악구 난곡로 367신대방역 2번 출구,50,37.487128999999996,126.913017
관악구,2178,서울특별시 관악구 관악로 1서울대학교 정문,25,37.46682,126.948807
관악구,2179,서울특별시 관악구 남부순환로 1761양녕로 입구,120,37.482189,126.94615900000001
관악구,2180,서울특별시 관악구 신림동길 8신림동주민센터,38,37.487511,126.92778799999999
관악구,2184,서울특별시 관악구 양녕로16길 4구암초등학교 버스정류장,260,37.489490999999994,126.945923
광진구,3500,서울특별시 광진구 능동로 313군자역2번출구,381,37.557587,127.079697
광진구,3501,서울특별시 광진구 자양로 131광진구청 앞,487,37.539501,127.083
광진구,3502,서울특별시 광진구 능동로 지하 417중곡역 1번출구 앞,235,37.565659000000004,127.08429699999999
광진구,3503,서울특별시 광진구 아차산로78길 7광진유진스웰,328,37.550488,127.10895500000001
광진구,3504,서울특별시 광진구 아차산로 304원일교회,11,37.538052,127.076599
광진구,3505,서울특별시 광진구 능동로 42신양초교앞 교차로,310,37.535221,127.068398
광진구,3506,서울특별시 광진구 자양동 203-22영동대교 북단,152,37.537014,127.06109599999999
광진구,3507,서울특별시 광진구 능동 465-7어린이회관,175,37.545952,127.07800300000001
광진구,3508,서울특별시 광진구 화양동 21-6화양사거리,388,37.548221999999996,127.067879
광진구,3509,서울특별시 광진구 군자동 111-2세종사이버대학교,77,37.553416999999996,127.073196
광진구,3510,서울특별시 광진구 용마산로32길 32중곡SK아파트앞,235,37.568649,127.08625
광진구,3516,서울특별시 광진구 광나루로 571구의아리수정수센터앞,182,37.543704999999996,127.093246
광진구,3517,서울특별시 광진구 능동로 373용마사거리,200,37.562527,127.082275
광진구,3520,서울특별시 광진구 자양로 167광진경찰서,398,37.542519,127.084084
광진구,3521,서울특별시 광진구 아차산로69길 29현대홈타운 뒷길,182,37.543427,127.09661899999999
광진구,3523,서울특별시 광진구 능동로 120건국대학교 과학관(이과대) 앞,175,37.541717999999996,127.08017
광진구,3524,서울특별시 광진구 군자로 114세종대학교,77,37.550236,127.07382199999999
광진구,3528,서울특별시 광진구 아차산로78길 90광진정보도서관,328,37.550598,127.11051200000001
광진구,3529,서울특별시 광진구 능동로 216어린이대공원정문,77,37.549789000000004,127.075928
광진구,3533,서울특별시 광진구 능동로 92건대입구역 사거리(롯데백화점),11,37.539139,127.070618
광진구,3534,서울특별시 광진구 아차산로 236건대입구역 5번출구 뒤,11,37.540138,127.06928300000001
광진구,3535,서울특별시 광진구 용마산로 63중곡사거리(국민은행),200,37.559158000000004,127.08751699999999
광진구,3536,서울특별시 광진구 뚝섬로 639중앙농협(자양동),102,37.531811,127.08074199999999
광진구,3537,서울특별시 광진구 천호대로 716아차산 휴먼시아 아파트 옆,92,37.548489000000004,127.09375800000001
광진구,500,서울특별시 광진구 능동로 지하210어린이대공원역 3번출구 앞,77,37.54707,127.074272
광진구,501,서울특별시 광진구 능동로 76광진구의회 앞,11,37.537308,127.070351
광진구,502,서울특별시 광진구 능동로 10뚝섬유원지역 1번출구 앞,310,37.531859999999995,127.06719199999999
광진구,503,서울특별시 광진구 아차산로 262더샵스타시티 C동 앞,11,37.536667,127.07359299999999
광진구,504,서울특별시 광진구 뚝섬로 596신자초교입구교차로,102,37.53297,127.07593500000002
광진구,505,서울특별시 광진구 아차산로 355타워더모스트 광진아크로텔,487,37.537009999999995,127.082245
광진구,515,서울특별시 광진구 자양로3길 7광양중학교 앞,306,37.530235,127.08683
광진구,516,서울특별시 광진구 광나루로 355광진메디컬앞,388,37.548404999999995,127.06936599999999
광진구,539,서울특별시 광진구 중곡동 263-1군자교교차로,127,37.559795,127.074203
광진구,540,서울특별시 광진구 군자동 499군자역 7번출구 베스트샵 앞,381,37.55603,127.078644
광진구,542,서울특별시 광진구 구의동 546-6강변역 14번 출구 아래,374,37.535465,127.09448200000001
광진구,543,서울특별시 광진구 구의동 546-3구의공원(테크노마트 앞),374,37.535969,127.094673
광진구,544,서울특별시 광진구 광장동 561-15광남중학교,135,37.540729999999996,127.102905
광진구,546,서울특별시 광진구 자양동 722잠실대교북단 교차로,306,37.532478000000005,127.08509099999999
광진구,548,서울특별시 광진구 자양동 738자양나들목,102,37.52977,127.07486000000002
광진구,549,서울특별시 광진구 구의동 96아차산역 3번출구,92,37.551224,127.089706
광진구,551,서울특별시 광진구 구의강변로 106구의삼성쉐르빌 앞,182,37.540062,127.094498
광진구,552,서울특별시 광진구 구의강변로 64대림아크로리버 앞,374,37.536578999999996,127.092972
광진구,553,서울특별시 광진구 동일로 459중곡 성원APT 앞,386,37.571255,127.079803
광진구,555,서울특별시 광진구 강변역로 17구의3동주민센터,374,37.537849,127.092171
광진구,571,서울특별시 광진구 군자로 74어린이대공원역6번출구,77,37.548496,127.07476000000001
광진구,572,서울특별시 광진구 능동로 398국립정신 건강센터 앞,235,37.56538,127.08651
광진구,573,서울특별시 광진구 능동로 216구의문주차장 앞,398,37.545231,127.084732
광진구,574,서울특별시 광진구 능동로 216아차산역4번출구,92,37.551849,127.088982
광진구,575,서울특별시 광진구 용마산로 120중앙농협 중곡지점,235,37.564293,127.086937
광진구,576,서울특별시 광진구 아차산로 552광나루역 3번 출구,135,37.54483,127.10426299999999
광진구,577,서울특별시 광진구 구천면로 2광진청소년수련관,135,37.546547,127.10613300000001
광진구,584,서울특별시 광진구 군자동 374-8광진광장 교통섬,77,37.547829,127.07263200000001
광진구,588,서울특별시 광진구 능동로 10뚝섬유원지역,310,37.532688,127.067497
광진구,590,서울특별시 광진구 능동로 120입학정보관,11,37.53989,127.07336399999998
광진구,591,서울특별시 광진구 능동로 120행정관,175,37.542778000000006,127.07537099999999
광진구,592,서울특별시 광진구 능동로 120학생회관,175,37.541911999999996,127.07763700000001
광진구,593,서울특별시 광진구 자양강변길 301광진구 자양2동 705,102,37.528587,127.077873
구로구,1901,서울특별시 구로구 신도림로 40구로구 신도림동 397-32,46,37.507332,126.87973000000001
구로구,1904,서울특별시 구로구 경인로67길 160구로구 신도림동 323-16,46,37.51424,126.882874
구로구,1906,서울특별시 구로구 경인로 688구로구 신도림동 348-1,251,37.50972,126.89009899999999
구로구,1907,서울특별시 구로구 구일로2길 59구로구 구로동 685-524,275,37.489632,126.876259
구로구,1908,서울특별시 구로구 구일로 110구로구 구로동 642-107,188,37.495284999999996,126.87216200000002
구로구,1910,서울특별시 구로구 구로동로42길 43구로구 구로동 454-92,35,37.497505,126.884377
구로구,1911,서울특별시 구로구 시흥대로 577-2구로구 구로동 1119,156,37.48494,126.901321
구로구,1912,서울특별시 구로구 디지털로31길 120구로구 구로동 772,428,37.4888,126.89066299999999
구로구,1913,서울특별시 구로구 구로중앙로 13구로구 구로동 136-14,428,37.491032000000004,126.892151
구로구,1914,서울특별시 구로구 도림천로 351구로구 구로동 72-9,80,37.494591,126.89392099999999
구로구,1916,서울특별시 구로구 구로중앙로 48구로구 구로동 65,35,37.494141,126.88998400000001
구로구,1924,서울특별시 구로구 남부순환로 1299구로구 가리봉동 127-30,40,37.478741,126.895096
구로구,1925,서울특별시 구로구 경인로 445구로구 고척동 63-3,70,37.499889,126.867699
구로구,1928,서울특별시 구로구 경인로 430구로구 고척동 63-5,70,37.49947,126.868401
구로구,1929,서울특별시 구로구 고척로45길 31구로구 고척동 산 9-14,56,37.505134999999996,126.85276
구로구,1930,서울특별시 구로구 경인로 293구로구 개봉동 139-4,56,37.497684,126.853729
구로구,1931,서울특별시 구로구 경인로40길 47구로구 개봉동 416-99,69,37.494995,126.858253
구로구,1933,서울특별시 구로구 남부순환로 775구로구 개봉동 92-1,375,37.501583000000004,126.84687
구로구,1936,서울특별시 구로구 경인로40길 47구로구 개봉동 202-42,69,37.494282,126.85921499999999
구로구,1937,서울특별시 구로구 개봉로3길 87구로구 개봉동 375-4,322,37.486061,126.85201299999999
구로구,1943,서울특별시 구로구 경인로3길 지하 64구로구 온수동 119-4,309,37.49279,126.824524
구로구,1946,서울특별시 구로구 구로중앙로 174구로동 603-26,176,37.503116999999996,126.88038600000002
구로구,1951,서울특별시 구로구 천왕로 9구로구 천왕동 79-11,89,37.480289,126.8395
구로구,1952,서울특별시 구로구 오리로 1102-10구로구 천왕동 257-82,89,37.482105,126.845726
구로구,1953,서울특별시 구로구 오리로 지하 1154구로구 오류동 174-6,115,37.486385,126.839211
구로구,1955,서울특별시 구로구 시흥대로 551디지털입구 교차로,156,37.482883,126.90103899999998
구로구,1956,서울특별시 구로구 신도림로 67도야미리숯불갈비 앞,46,37.51001,126.88205
구로구,1957,서울특별시 구로구 구일로 90-51구일고등학교 정문,188,37.493401,126.874329
구로구,1958,서울특별시 구로구 가마산로 272강서수도사업소민원센터,35,37.495781,126.890121
구로구,1959,서울특별시 구로구 가마산로25길 9-24구로구의회 앞,35,37.496456,126.889587
구로구,1960,서울특별시 구로구 공원로 68화광신문사 앞,126,37.50285,126.889481
구로구,1961,서울특별시 구로구 새말로 121-15신도림테크노근린공원,251,37.508194,126.891304
구로구,1962,서울특별시 구로구 디지털로26길 5가리봉동주민센터,405,37.481602,126.892799
구로구,1964,서울특별시 구로구 경인로 403원메디타운 앞,70,37.497890000000005,126.864502
구로구,1965,서울특별시 구로구 경인로 343삼환로즈빌아파트 105동 옆,69,37.497231,126.859192
구로구,1966,서울특별시 구로구 경인로 382한마을아파트 정문상가,70,37.496497999999995,126.863098
구로구,1967,서울특별시 구로구 고척로21길 85참새공원(백곡경노당),97,37.505138,126.84433700000001
구로구,1968,서울특별시 구로구 고척로22길 64동인오피스텔 건너편 소공원,375,37.498482,126.847504
구로구,1969,서울특별시 구로구 오리로 1352궁동생태공원,343,37.501903999999996,126.82896399999998
구로구,1971,서울특별시 구로구 경인로2길 10오청초교 앞 보도육교,309,37.490722999999996,126.826393
구로구,1973,서울특별시 구로구 오리로 1181오리로와 서해안도로 교차로 앞,115,37.488597999999996,126.83649399999999
구로구,1974,서울특별시 구로구 신도림로 16신도림2차e편한세상아파트 203동 앞,176,37.505179999999996,126.88253799999998
구로구,1975,서울특별시 구로구 도림천로 351대림역 1번 출입구 밑,80,37.49258,126.894737
구로구,1976,서울특별시 구로구 도림로 지하 7남구로역 5번 출입구 앞,72,37.48568,126.886703
구로구,1977,서울특별시 구로구 오리로 지하 1154천왕역 1번 출입구 앞,115,37.48621,126.838821
구로구,1979,서울특별시 구로구 구일로 64구로1동우체국 앞,188,37.492031,126.873772
구로구,1981,서울특별시 구로구 천왕로 10천왕이펜하우스5단지 앞,89,37.479431,126.842697
구로구,1983,서울특별시 구로구 새말로 31구로동롯데아파트,176,37.502548,126.883881
구로구,1984,서울특별시 구로구 가마산로 245구로구청,35,37.495266,126.888474
구로구,1985,서울특별시 구로구 공원로 15구로도서관,126,37.498515999999995,126.89199099999999
구로구,1986,서울특별시 구로구 디지털로31길 12태평양물산IT빌딩 앞,405,37.484859,126.895187
구로구,1987,서울특별시 구로구 개봉로2길 133-15개봉아이파크아파트 앞,69,37.490341,126.86093100000001
구로구,1988,서울특별시 구로구 중앙로 100고척LIGA아파트 앞,30,37.50605,126.860786
구로구,1991,서울특별시 구로구 경인로 219동방서적,375,37.496761,126.84496299999999
구로구,1993,서울특별시 구로구 오리로 1197금강수목원아파트 앞,115,37.48938,126.834198
구로구,1994,서울특별시 구로구 구일로 126삼성전자 물류센터 앞,188,37.496998,126.87178
금천구,1804,서울특별시 금천구 벚꽃로 115가산동 680-2 독산역 2번출구 뒤편 자전거 주차장,455,37.46653,126.888718
금천구,1805,서울특별시 금천구 가산디지털2로 151가산동 459-16,371,37.482288,126.877769
금천구,1806,서울특별시 금천구 가산디지털1로 233가산동 602-3,275,37.486214000000004,126.87863899999999
금천구,1808,서울특별시 금천구 가산디지털1로 84가산동 345-5,39,37.473209000000004,126.884941
금천구,1809,서울특별시 금천구 가산디지털1로 63가산동 319-11,39,37.470779,126.88515500000001
금천구,1812,서울특별시 금천구 디지털로9길 32가산동 60-35,72,37.479031,126.887299
금천구,1814,서울특별시 금천구 가산로 99가산동 153-16,40,37.47422,126.894127
금천구,1816,서울특별시 금천구 시흥대로38길 61시흥동 1001-1,376,37.446861,126.90383100000001
금천구,1819,서울특별시 금천구 시흥대로73길 70시흥동 1020,383,37.456478000000004,126.895927
금천구,1820,서울특별시 금천구 시흥대로 446시흥동 1001-7,376,37.44334,126.90335800000001
금천구,1821,서울특별시 금천구 시흥대로 198시흥동 1000-92,130,37.451458,126.902115
금천구,1822,서울특별시 금천구 시흥대로 217시흥동 1000-71,130,37.452991,126.90090900000001
금천구,1823,서울특별시 금천구 시흥대로 287독산동 1080-8,383,37.458912,126.89858999999998
금천구,1824,서울특별시 금천구 독산동 독산동 1086 (금천교 사거리 독산근린공원 입구),232,37.46455,126.883728
금천구,1825,서울특별시 금천구 금하로1길 70독산동 1094 (성민성결교회 앞),81,37.4547,126.891052
금천구,1826,서울특별시 금천구 한내로 62독산동 1092 (도로다이어트 사업으로 보도 확장예정),81,37.456841,126.88834399999999
금천구,1827,서울특별시 금천구 서부샛길 70독산동 724-5 (자전거종합서비스센터 앞쪽),81,37.455849,126.893143
금천구,1829,서울특별시 금천구 시흥대로 391독산동 291-4,247,37.469139,126.89720200000001
금천구,1830,서울특별시 금천구 두산로 71독산동 295-22,247,37.47023,126.895073
금천구,1831,서울특별시 금천구 시흥대로 435독산동 152-12,247,37.4725,126.897957
금천구,1833,서울특별시 금천구 벚꽃로 115독산동 1081-9 (금천고가차도 하부 태영아파트 앞),455,37.466541,126.89028200000001
금천구,1834,서울특별시 금천구 가산디지털2로 123가산동 450-2,371,37.479084,126.879044
금천구,1835,서울특별시 금천구 가산디지털1로 128가산동 371-37,39,37.47707,126.88443000000001
금천구,1836,서울특별시 금천구 독산로54길 114독산동 375-2,291,37.467403000000004,126.908142
금천구,1839,서울특별시 가산동 60-35수출의 다리 아래,39,37.477058,126.885185
금천구,1840,서울특별시 가산동 219-18솔브레인이엔지 뒤편,39,37.475101,126.88806899999999
금천구,1841,서울특별시 가산동 144-3가산동 주민센터,40,37.476952000000004,126.891869
금천구,1842,서울특별시 시흥동 1000-3한울중학교,291,37.462574,126.90686000000001
금천구,1843,서울특별시 독산동 906-42독산고등학교,166,37.477097,126.911133
금천구,1845,서울특별시 금천구 벚꽃로40 롯데캐슬골드파크1차 서문,81,37.460289,126.89218899999999
금천구,1846,서울특별시 금천구 독산동 441-19 롯데캐슬골드파크1차 동문,383,37.460171,126.896042
금천구,1847,서울특별시 금천구 안양천로독산주공 14단지 버스정류소,232,37.461033,126.8871
금천구,1848,서울특별시 금천구 가산동 60-73 벽산 디지털밸리 5차,39,37.476276,126.885391
금천구,1849,서울특별시 금천구 디지털로9길 68대륭포스트타워5차,72,37.481353999999996,126.88694
금천구,1850,서울특별시 금천구 디지털로9길 56코오롱테크노밸리,72,37.48016,126.88636799999999
금천구,1851,서울특별시 금천구 벚꽃로 309가산디지털단지 7번출구,371,37.481232,126.88148500000001
금천구,1853,서울특별시 금천구 가산로 70서울디자인직업전문학교 앞,247,37.472481,126.895866
금천구,1854,서울특별시 금천구 남부순환로 1314가산아네스트 오피스텔 앞,40,37.47818,126.89740800000001
금천구,1855,서울특별시 금천구 시흥대로51길 55성지아파트 옆 도로변,130,37.451321,126.897621
금천구,1856,서울특별시 금천구 남부순환로128길 42모두의학교,166,37.478409,126.907372
금천구,1857,서울특별시 금천구 한내로 69-54주공14단지,232,37.46056,126.887093
금천구,1858,서울특별시 금천구 시흥대로 39-7석수역1번출구 앞 (SK주유소),444,37.437271,126.90268700000001
노원구,1601,서울특별시 노원구 화랑로 331노원구 월계동 47-45,57,37.615299,127.06446799999999
노원구,1602,서울특별시 노원구 석계로 98-2노원구 월계동 412-1,8,37.622662,127.061897
노원구,1603,서울특별시 노원구 월계로 252노원구 월계동 860-16,270,37.624859,127.05013999999998
노원구,1605,서울특별시 노원구 월계로 378노원구 월계동 321-4,463,37.631622,127.06161499999999
노원구,1606,서울특별시 노원구 동일로 지하 992-1노원구 공릉동 616-4,357,37.619171,127.074928
노원구,1608,서울특별시 노원구 동일로 지하 1074노원구 공릉동 385-4,259,37.626614000000004,127.072754
노원구,1610,서울특별시 노원구 화랑로 지하 510노원구 공릉동 280-12,88,37.620369000000004,127.08364099999999
노원구,1611,서울특별시 노원구 공릉로 232노원구 공릉동 436-4,259,37.629940000000005,127.076553
노원구,1616,서울특별시 노원구 동일로 지하 1196노원구 하계동 273-5,201,37.635109,127.068329
노원구,1617,서울특별시 노원구 섬밭로 241하계동 271-1,262,37.63715,127.063271
노원구,1619,서울특별시 노원구 한글비석로 235노원구 중계동 391,67,37.649021000000005,127.076408
노원구,1620,서울특별시 노원구 노원로22길 1노원구 중계1동 360-18,364,37.648209,127.07022099999999
노원구,1623,서울특별시 노원구 동일로 1229노원구 중계동 507-3,262,37.638649,127.06629199999999
노원구,1625,서울특별시 노원구 상계로 182노원구 상계동 173-19,426,37.66,127.07296799999999
노원구,1627,서울특별시 노원구 동일로 지하 1662노원구 상계동 1263,218,37.676941,127.055099
노원구,1628,서울특별시 노원구 동일로 1652노원구 상계동 1118-9,459,37.673618,127.055252
노원구,1630,서울특별시 노원구 동일로 지하 1662노원구 상계동 1132-9,218,37.67625,127.055504
노원구,1634,서울특별시 노원구 상계로 283노원구 상계동 65-43,96,37.669078999999996,127.077591
노원구,1635,서울특별시 노원구 덕릉로131길 8노원구 상계동 37-7,96,37.672709999999995,127.08316
노원구,1636,서울특별시 노원구 동일로 1351노원구 상계동 747,20,37.649212,127.06176799999999
노원구,1637,서울특별시 노원구 노해로 489노원구 상계동 719-1,19,37.654701,127.0634
노원구,1639,서울특별시 노원구 동일로 1701노원구 상계동 1263,218,37.680313,127.05506899999999
노원구,1640,서울특별시 노원구 마들로 86한내근린공원 북측,242,37.623863,127.06848899999999
노원구,1641,서울특별시 노원구 마들로 86한내근린공원 남측,242,37.621555,127.069511
노원구,1642,서울특별시 노원구 화랑로51길 38서울여대 남문,372,37.625434999999996,127.088493
노원구,1643,서울특별시 노원구 공릉동 687-6태릉입구역 8번출구,357,37.617367,127.07521100000001
노원구,1646,서울특별시 노원구 공릉동 26-43삼육대 입구,287,37.638489,127.10790300000001
노원구,1650,서울특별시 노원구 중계동 506-3중계근린공원내,262,37.63958,127.065102
노원구,1651,서울특별시 노원구 상계동 1118-9맥도날드 상계점 앞,459,37.672375,127.05599199999999
노원구,1652,서울특별시 노원구 상계동 1263파르코 앞,218,37.68,127.05558
노원구,1653,서울특별시 노원구 상계동 335-4노원역1번출구,19,37.6562,127.063622
노원구,1654,서울특별시 노원구 상계동 172-2보훈회관 대여소,426,37.663792,127.075447
노원구,1655,서울특별시 동일로 1127공릉1단지아파트,201,37.631111,127.07016000000002
노원구,1656,서울특별시 노원구 노원로 428중앙하이츠 아파트 입구,19,37.654999,127.06743600000001
노원구,1657,서울특별시 노원구 노해로 437 노원구청 ,473,37.654049,127.057327
노원구,1659,서울특별시 노원구 중계동 370중계동 을지중학교,364,37.65033,127.071602
노원구,1660,서울특별시 노원구 하계동 266서울시립과학관,112,37.642071,127.076622
노원구,1661,서울특별시 노원구 동일로 1342당현천근린공원,20,37.649639,127.065605
노원구,1662,서울특별시 노원구 노해로 467노원역 7번출구,473,37.654114,127.059151
노원구,1663,서울특별시 노원구 화랑로 429동해문화예술관앞,8,37.619381,127.057854
노원구,1664,서울특별시 노원구 노원로22길 1노해근린공원내,364,37.649361,127.07044199999999
노원구,1665,서울특별시 노원구 한글비석로 227양지근린공원앞,67,37.647335,127.076424
노원구,1666,서울특별시 노원구 노원로26길 111노원소방서인근,123,37.655781,127.071777
노원구,1667,서울특별시 노원구 덕릉로76길 23중계중학교,123,37.654499,127.07438700000002
노원구,1668,서울특별시 노원구 동일로 지하 1308-1중계역 6번출구,20,37.645508,127.063255
노원구,1669,서울특별시 노원구 동일로 지하 1308-1중계역 3번출구,20,37.643528,127.065224
노원구,1670,서울특별시 노원구 노원로 283노원경찰서교차로,112,37.643409999999996,127.07183799999999
노원구,1671,서울특별시 노원구 초안산로 12인덕대학교,419,37.629349,127.054825
노원구,1672,서울특별시 노원구 누원로 18상계동수락리버시티,413,37.688598999999996,127.05340600000001
노원구,1673,서울특별시 노원구 동일로 1404노원역 5번출구,19,37.653976,127.060974
노원구,1674,서울특별시 노원구 노해로 450서울북부고용센터앞,473,37.653549,127.05808300000001
노원구,1675,서울특별시 노원구 월계로 280월계문화체육센터,419,37.626942,127.05513
노원구,1677,서울특별시 노원구 화랑로 570육군사관학교 앞,372,37.623165,127.0905
노원구,1678,서울특별시 노원구 동일로214길 32성서대학교 밀알관,20,37.648438,127.06444499999999
노원구,1679,서울특별시 노원구 화랑로 815삼육대 도서관,287,37.64283,127.10666699999999
노원구,1680,서울특별시 노원구 화랑로 653삼육대 후문 삼거리,287,37.642654,127.108383
노원구,1681,서울특별시 노원구 중계로8길 20현대6차 아파트,67,37.645802,127.08226
노원구,1682,서울특별시 노원구 덕릉로 662중계종합사회복지관 교차로,123,37.656799,127.077606
노원구,1683,서울특별시 노원구 중계로 181노원문화예술회관,67,37.650459000000005,127.080887
노원구,1684,서울특별시 노원구 동일로 986태릉입구역 5번출구와 6번출구 사이,357,37.618320000000004,127.07563
노원구,1685,서울특별시 노원구 중계로 155불암고등학교 앞 횡단보도,67,37.64819,127.080482
노원구,1686,서울특별시 노원구 동일로227길 85온수골사거리(스타벅스앞),404,37.66114,127.058052
노원구,1688,서울특별시 노원구 동일로 지하 1530-1마들역 7번출구,486,37.665661,127.05729699999999
노원구,1689,서울특별시 노원구 동일로 지하 1530-1마들역 3번출구,486,37.665248999999996,127.057892
노원구,1690,서울특별시 노원구 동일로 1449도봉운전면허시험장,404,37.65773,127.05931100000001
노원구,1691,서울특별시 노원구 노원로34길 43노원정보도서관,19,37.660709000000004,127.065331
도봉구,1702,서울특별시 도봉구 덕릉로 376창동 57-11,37,37.646172,127.05056
도봉구,1703,서울특별시 도봉구 도봉로 955도봉동 637-1,207,37.68972,127.045197
도봉구,1705,서울특별시 도봉구 마들로 656방학동 720,215,37.669224,127.046516
도봉구,1706,서울특별시 도봉구 도봉로 683방학동 726-92,393,37.665665000000004,127.042671
도봉구,1707,서울특별시 도봉구 도봉로 552창동 723-11,340,37.654461,127.038513
도봉구,1708,서울특별시 도봉구 해등로 150창동 723-10,340,37.65683,127.03984799999999
도봉구,1709,서울특별시 도봉구 도봉로 지하 486-1쌍문동 83-5,113,37.650127000000005,127.035347
도봉구,1712,서울특별시 도봉구 마들로11길 74도봉구 창동 1-9,119,37.654049,127.050201
도봉구,1713,서울특별시  도봉구 노해로140쌍문동 청소년 랜드,378,37.647265999999995,127.025879
도봉구,1714,서울특별시 도봉구 덕릉로 315도봉문화정보도서관 삼거리,37,37.64463,127.04460900000001
도봉구,1715,서울특별시 도봉구 삼양로556서울특별시교육청도봉도서관,71,37.653178999999994,127.01278700000002
도봉구,1716,서울특별시 도봉구 마들로11길 20하나로마트 창동점,119,37.654202000000005,127.050728
도봉구,1717,서울특별시 도봉구 창동 1-24시립창동운동장 입구,119,37.655708000000004,127.050102
도봉구,1719,서울특별시  도봉구 도봉로 771신도봉사거리 버스정류장,215,37.673283000000005,127.04399099999999
도봉구,1720,서울특별시 도봉구 마들로 656도봉구청 옆(중랑천변),215,37.668671,127.04798100000001
도봉구,1721,서울특별시 창동 74-2 창동역 2번출구 ,119,37.653015,127.04699699999999
도봉구,1722,서울특별시 도봉구 노해로69길 132창동청소년수련관,119,37.657799,127.050049
도봉구,1723,서울특별시 도봉구 시루봉로 128방학동학마을도서관,483,37.662079,127.027718
도봉구,1725,서울특별시 도봉구 해등로 46창1동주민센터,37,37.647503,127.04331200000001
도봉구,1726,서울특별시 도봉구 해등로 189삼익세라믹아파트,339,37.658588,127.03521
도봉구,1727,서울특별시 도봉구 도봉로173길 96서울도봉초등학교인근,124,37.678677,127.040764
도봉구,1728,서울특별시 도봉구 마들로 749서울북부지방법원,124,37.677665999999995,127.04624199999999
도봉구,1729,서울특별시 도봉구 도봉로 891파리바게트앞,207,37.68401,127.04579199999999
도봉구,1730,서울특별시 도봉구 도봉산길 10도봉산역 교차로 앞,207,37.687591999999995,127.045502
도봉구,1732,서울특별시 도봉구 도봉로 707우리은행 앞,393,37.667598999999996,127.042999
도봉구,1733,서울특별시 도봉구 방학로 102방학사거리 (봄마당 앞),393,37.662979,127.04193899999999
도봉구,1734,서울특별시 도봉구 해등로 218쌍문현대1차아파트 108동 앞,339,37.65815,127.032669
도봉구,1735,서울특별시 도봉구 도봉로170길 2도봉역 12번 출구사이 건너편,124,37.679119,127.044983
도봉구,1736,서울특별시 도봉구 도봉로 528버스정류장 앞,340,37.652241,127.03706399999999
도봉구,1737,서울특별시 도봉구 덕릉로 249하나은행 (창동점),451,37.639702,127.03883400000001
도봉구,1741,서울특별시 도봉구 도봉로 444제일강산수산입구,113,37.645199,127.032982
동대문구,600,서울특별시 동대문구 한천로 329휘경2동 주민센터,167,37.589912,127.06868
동대문구,601,서울특별시 동대문구 용두동 65-25용신동주민센터,0,37.575947,127.037361
동대문구,602,서울특별시 동대문구 장한로 25길 2장안동 사거리,84,37.572174,127.07138799999998
동대문구,604,서울특별시 동대문구 전농로3길 23답십리초등학교 옆 공원,424,37.569656,127.05596200000001
동대문구,605,서울특별시 동대문구 천호대로 26신설동역9번출구,24,37.5742,127.02649699999999
동대문구,606,서울특별시 동대문구 겸재로 21휘경공고앞,453,37.584625,127.07028999999999
동대문구,608,서울특별시 동대문구 전농로 192전농삼성아파트,190,37.581309999999995,127.05534399999999
동대문구,609,서울특별시 동대문구 제기동122-388제기2교,298,37.587790999999996,127.037361
동대문구,610,서울특별시 동대문구 답십리동 524-1동대문중 교차로,226,37.573085999999996,127.05216200000001
동대문구,612,서울특별시 동대문구 용두동 237-10 시립동부병원 앞 사거리,24,37.573665999999996,127.03081499999999
동대문구,613,서울특별시 동대문구 신설동 92-34신설동역 10번출구 앞,31,37.575272,127.023468
동대문구,614,서울특별시 동대문구 용두동 237-10용두동 사거리,24,37.577686,127.03101299999999
동대문구,615,서울특별시 동대문구 용두동 696-13 용두동 레미안허브리츠아파트 앞,0,37.576382,127.03511
동대문구,616,서울특별시 동대문구 전농동 135-5시립대 앞,190,37.582561,127.054367
동대문구,617,서울특별시 동대문구 답십리동 94-2 청솔우성아파트 앞,246,37.574203000000004,127.057693
동대문구,621,서울특별시 동대문구 사가정로 62동대문중학교 옆(버스정류장 부근),226,37.574718,127.05339099999999
동대문구,622,서울특별시 동대문구 사가정로 119전농사거리 교통섬(전농서적 앞),246,37.577793,127.05783100000001
동대문구,623,서울특별시 동대문구 서울시립대로 161서울시립대 정문 앞(시더프라자빌딩 앞),190,37.583698,127.05385600000001
동대문구,624,서울특별시 동대문구 서울시립대로 31전농동 동아아파트 앞(T-World 앞 보도),385,37.574188,127.045891
동대문구,625,서울특별시 동대문구 전농로 34답십리초등학교 앞(현대시장 옆),424,37.568191999999996,127.057175
동대문구,626,서울특별시 동대문구 장한로6길 95군자교녹지대 동측 앞,127,37.561153000000004,127.07096899999999
동대문구,627,서울특별시 동대문구 사가정로 240장안동삼거리 교통섬,497,37.578632,127.07190700000001
동대문구,628,서울특별시 동대문구 한천로 290휘봉고등학교 앞,453,37.586815,127.067543
동대문구,630,서울특별시 동대문구 천호대로 145동대문구 보건소,0,37.574852,127.040306
동대문구,631,서울특별시 동대문구 천호대로 269답십리역 1번출구,163,37.568184,127.051277
동대문구,633,서울특별시 동대문구 홍릉로 1청량리 기업은행 앞,170,37.580405999999996,127.044823
동대문구,634,서울특별시 동대문구 이문로 107외국어대 정문 앞,13,37.59602,127.05983
동대문구,635,서울특별시 동대문구 이문로1길 11시조사 앞 (청량고정문 옆),190,37.587517,127.052773
동대문구,636,서울특별시 동대문구 회기로 56세종대왕기념관 교차로,172,37.5909,127.04258700000001
동대문구,637,서울특별시 동대문구 회기로 85KAIST 경영대학 앞,172,37.591614,127.04579199999999
동대문구,638,서울특별시 동대문구 한천로43길 12-14서울시립대 정보기술관,373,37.583008,127.060974
동대문구,639,서울특별시 동대문구 한천로43길 12-14서울시립대 후문,373,37.585196999999994,127.060951
동대문구,640,서울특별시 동대문구 왕산로 205KEB하나은행 청량리역지점,170,37.582454999999996,127.044495
동대문구,641,서울특별시 동대문구 청계천로 563용두역 4번출구,0,37.573753,127.03853600000001
동대문구,642,서울특별시 동대문구 천호대로 231신답역 빵굼터 앞,163,37.570156,127.048584
동대문구,643,서울특별시 동대문구 장안벚꽃로 77동대문구민체육센터 (육교아래),84,37.566971,127.074417
동대문구,646,서울특별시 동대문구 천호대로 405장한평역 1번출구 (국민은행앞),117,37.561867,127.06437700000001
동대문구,647,서울특별시 동대문구 신이문로 44신이문역 1번출구,305,37.602798,127.067268
동대문구,648,서울특별시 동대문구 한천로 42장안동위더스빌옆,117,37.5667,127.062424
동대문구,650,서울특별시 동대문구 망우로 131중랑교사거리,167,37.591534,127.067741
동대문구,651,서울특별시 동대문구 왕산로 239우리은행청량리지점앞,170,37.582747999999995,127.04827900000001
동대문구,652,서울특별시 동대문구 사가정로 190답십리 래미안엘파인아파트 입구,223,37.57653,127.065941
동대문구,654,서울특별시 동대문구 사가정로 65전농동 텃골공원,226,37.577621,127.052109
동대문구,656,서울특별시 동대문구 홍릉로 78-1영휘원 교차로,172,37.587238,127.04313700000002
동대문구,657,서울특별시 동대문구 답십리로23길 30동대문롯데캐슬아파트 앞,385,37.575759999999995,127.04836999999999
동대문구,658,서울특별시 동대문구 답십리로 233촬영소 사거리,223,37.572948,127.066147
동대문구,659,서울특별시 동대문구 왕산로 87제기역1번출구,24,37.57835,127.03338600000001
동대문구,660,서울특별시 동대문구 왕산로 128동의보감타워,0,37.577999,127.037628
동대문구,661,서울특별시 동대문구 경희대로 26경희대학교 청운관,13,37.594601000000004,127.05196399999998
동작구,2002,서울특별시 동작구 노량진로 지하 238동작구 본동 344-10,32,37.512844,126.952469
동작구,2003,서울특별시 동작구 노량진로 191동작구 노량진동 152-7,32,37.513359,126.94805900000001
동작구,2007,서울특별시 동작구 노량진로 74동작구 대방동 47-3,478,37.512939,126.934242
동작구,2008,서울특별시 동작구 여의대방로44길 20동작구 대방동 503-2,178,37.509369,126.92806999999999
동작구,2009,서울특별시 동작구 상도로 지하 2동작구 대방동 466-51,294,37.500076,126.92108200000001
동작구,2012,서울특별시 동작구 시흥대로 634동작구 신대방동 699,336,37.488361,126.906227
동작구,2013,서울특별시 동작구 상도로 지하 188동작구 노량진동 311-4,60,37.505852000000004,126.93936200000002
동작구,2015,서울특별시 동작구 상도로 지하 76동작구 상도동 329-2,255,37.499855,126.929565
동작구,2016,서울특별시 동작구 상도로 지하 76동작구 대방동 406-10,255,37.499645,126.927094
동작구,2020,서울특별시 동작구 상도로 지하 188동작구 상도동 26-20,60,37.504498,126.938988
동작구,2024,서울특별시 동작구 상도로 지하 272동작구 상도1동 776,18,37.502178,126.948204
동작구,2025,서울특별시 동작구 현충로 지하 90동작구 흑석동 2-28,91,37.50938,126.96361499999999
동작구,2026,서울특별시 동작구 현충로 지하 90동작구 현충로 104,91,37.509056,126.963249
동작구,2027,서울특별시 동작구 흑석로 47동작구 흑석동 221-1,91,37.507042,126.959152
동작구,2028,서울특별시 동작구 사당로 지하 218동작구 사당동 712-8,250,37.48447,126.971428
동작구,2032,서울특별시 동작구 사당로 지하 310동작구 사당동 144-4,477,37.485508,126.98162099999999
동작구,2033,서울특별시 동작구 동작대로 지하 3동작구 사당동 1112,3,37.481491,126.981583
동작구,2036,서울특별시 서초구 동작대로 198동작구 동작동 66-29,358,37.494704999999996,126.98239099999999
동작구,2037,서울특별시 동작구 현충로 지하 220동작구 동작동 326,484,37.503189,126.97715
동작구,2038,서울특별시 동작구 현충로 지하 220동작구 동작동 203-5,484,37.503181,126.97608899999999
동작구,2040,서울특별시 동작구 현충로 151동작구 흑석동 28-3,362,37.506359,126.969078
동작구,2041,서울특별시 동작구 사당로 169동작구 사당동 211-2,454,37.486835,126.968048
동작구,2048,서울특별시 동작구 사당로23나길 27사당동 708-566,250,37.488453,126.97421299999999
동작구,2050,서울특별시 동작구 노량진로 지하 130노량진동 60-11,377,37.513248,126.939972
동작구,2054,서울특별시 동작구 만양로 84노량진동 118-14,32,37.510548,126.944847
동작구,2056,서울특별시 동작구 여의대방로16길 53신대방동 460-37,480,37.494499,126.916527
동작구,2057,서울특별시 동작구 장승배기로 26상도동 201-38,60,37.500881,126.94175
동작구,2058,서울특별시 동작구 노량진동 113-7 노량진동 맥도널드앞,377,37.513523,126.943527
동작구,2059,서울특별시 동작구 신대방동 395 보라매공원 정문,294,37.497078,126.91779299999999
동작구,2060,서울특별시 동작구 사당동 1131 남성역3번출구 뒤,250,37.484631,126.97155
동작구,2061,서울특별시 동작구 흑석동 27-83 한강 현대아파트 건너편,362,37.505928000000004,126.96923100000001
동작구,2062,서울특별시 사당동 211-2 사당새마을금고,454,37.486652,126.96784199999999
동작구,2063,서울특별시 영등포구 여의대방로 300대방역 4번출구,178,37.512901,126.92661299999999
동작구,2064,서울특별시 동작구 흑석한강로 27흑석한강푸르지오 106동앞,362,37.505356,126.966179
동작구,2065,서울특별시 동작구 여의대방로54길 18서울여성가족재단,178,37.511990000000004,126.92708600000002
동작구,2066,서울특별시 동작구 시흥대로 646미스터가이드양복전문점,336,37.489399,126.90711200000001
동작구,2067,서울특별시 동작구 여의대방로 122LG전자 베스트샾 대리점 앞,294,37.497669,126.919868
동작구,2068,서울특별시 동작구 동작대로 지하 3총신대 앞(육교),454,37.488159,126.966476
동작구,2069,서울특별시 동작구 상도로 지하 378숭실대 입구역3번 출구 앞,18,37.496601,126.953682
동작구,2070,서울특별시 동작구 노량진로 155노량진역 2번 출구 앞,377,37.51392,126.943069
동작구,237,서울특별시 영등포구 신길동 4490 보라매 두산위브 앞,480,37.496513,126.914803
마포구,101,서울특별시 마포구 동교로8길 58444-12,238,37.549561,126.905754
마포구,102,서울특별시 마포구 월드컵로 72475-54,286,37.555649,126.910629
마포구,103,서울특별시 마포구 월드컵로 79378-18,286,37.554951,126.910835
마포구,104,서울특별시 마포구 양화로 59393-7,392,37.550629,126.91498600000001
마포구,105,서울특별시 마포구 양화로 48394-95,392,37.550007,126.914825
마포구,106,서울특별시 마포구 독막로 4381-1,392,37.548645,126.91282700000001
마포구,107,서울특별시 마포구 월드컵북로 35449-28,205,37.55751,126.918503
마포구,108,서울특별시 마포구 양화로 93427,205,37.552746,126.918617
마포구,109,서울특별시 마포구 어울마당로 2612-2,307,37.547691,126.919983
마포구,111,서울특별시 마포구 와우산로 40309-10,307,37.547871,126.92353100000001
마포구,112,서울특별시 마포구 와우산로 5689-2,307,37.549202,126.923203
마포구,113,서울특별시 마포구 양화로 165156-8,116,37.557499,126.923805
마포구,114,서울특별시 마포구 양화로18길 3192-5,116,37.55706,126.924423
마포구,118,서울특별시 마포구 독막로 지하165243-3,59,37.547733,126.93176299999999
마포구,119,서울특별시 마포구 창전로 30서강나루공원,59,37.545284,126.931053
마포구,120,서울특별시 마포구 토정로 211371-11,59,37.545242,126.93411299999998
마포구,121,서울특별시 마포구 창전로 76100-18,59,37.549766999999996,126.933174
마포구,122,서울특별시 마포구 독막로 223-150-2,137,37.547249,126.93929299999999
마포구,124,서울특별시 마포구 서강로16길 7284-5,257,37.551140000000004,126.93698899999998
마포구,125,서울특별시 마포구 백범로 351-30,137,37.549484,126.93895
마포구,126,서울특별시 마포구 대흥로 12238-16,137,37.550411,126.943848
마포구,127,서울특별시 마포구 백범로 1031-213,257,37.55352,126.93695100000001
마포구,129,서울특별시 마포구 신촌로 10631-123,257,37.555054,126.937569
마포구,130,서울특별시 마포구 신촌로 9431-123,257,37.554859,126.93615700000001
마포구,136,서울특별시 마포구 신촌로26길 101-83,211,37.556003999999994,126.942299
마포구,142,서울특별시 마포구 아현동 329-15아현역 4번출구 앞,274,37.557201,126.955666
마포구,143,서울특별시 마포구 공덕동 257-88공덕역 2번출구,347,37.544579,126.95021799999999
마포구,144,서울특별시 마포구 공덕동 438-5공덕역 8번출구,347,37.543579,126.951324
마포구,145,서울특별시 마포구 공덕동 237-9공덕역 5번출구,347,37.54425,126.951637
마포구,146,서울특별시 마포구 도화동 555-2마포역 1번출구 뒤,165,37.539936,126.945824
마포구,147,서울특별시 마포구 도화동 292-29마포역 4번출구 뒤,165,37.539272,126.94591499999999
마포구,148,서울특별시 마포구 용강동 234-1용강동 주민센터 앞,165,37.542347,126.943024
마포구,150,서울특별시 마포구 노고산동 112-13서강대역 2번출구 앞,257,37.552956,126.93434099999999
마포구,151,서울특별시 마포구 망원동 403-2망원1동주민센터,286,37.555687,126.905548
마포구,152,서울특별시 마포구 망원동 452-4마포구민체육센터 앞,409,37.55661,126.898018
마포구,153,서울특별시 마포구 성산동 54-17성산2교 사거리,9,37.564696999999995,126.912613
마포구,154,서울특별시 마포구 망원동 477-23마포구청역 ,402,37.560909,126.905495
마포구,155,서울특별시 마포구 성산동123-29가좌역1.2번출구,9,37.56855,126.91451299999999
마포구,156,서울특별시 마포구 공덕동 105-11서울서부지방법원 앞,330,37.549904,126.955147
마포구,157,서울특별시 마포구 아현동 607-1애오개역 4번출구 앞,330,37.553001,126.95668799999999
마포구,1687,서울특별시 노원구 동일로227길 26노원구 상계15단지,429,37.568721999999994,126.896225
마포구,181,서울특별시 마포구 마포나루길 467망원초록길 입구,238,37.551342,126.902672
마포구,182,서울특별시?마포구?동교로?7망원2빗물펌프장 앞,238,37.551567,126.902847
마포구,183,서울특별시 마포구 연남로 30하늘채코오롱아파트 건너편,9,37.565166,126.919395
마포구,184,서울특별시 마포구 월드컵로 119?SK망원동주유소 건너편,402,37.558949,126.907753
마포구,185,서울특별시 마포구 현석동 106-32마포 신수공원 앞,59,37.542545000000004,126.934296
마포구,186,서울특별시 마포구 하늘공원로 108-1월드컵공원,26,37.563965,126.89820900000001
마포구,199,서울특별시 마포구 성산동 515서울 월드컵 경기장,429,37.566845,126.896446
마포구,400,서울특별시 마포구 구룡길 19상암한화오벨리스크 1차 앞,443,37.587524,126.883003
마포구,401,서울특별시 마포구 월드컵북로 502-36상암월드컵파크 10단지 앞,443,37.586189000000005,126.881615
마포구,402,서울특별시 마포구 월드컵북로 501상암월드컵파크 9단지 앞,1,37.582855,126.87982199999999
마포구,403,서울특별시 마포구 가양대로 189부엉이근린공원 앞,443,37.58559,126.884727
마포구,405,서울특별시 마포구 월드컵북로60길 13DMC빌 앞,1,37.582657,126.88578799999999
마포구,406,서울특별시 마포구 상암산로1길 92상암월드컵파크 7단지 앞,1,37.581314,126.88058500000001
마포구,407,서울특별시 마포구 상암산로1길 71마포구 육아보육정보센터 앞,1,37.580631,126.883675
마포구,408,서울특별시 마포구 월드컵북로 424LG CNS앞,1,37.580811,126.88665
마포구,409,서울특별시 마포구 월드컵북로 396누리꿈스퀘어 옆,12,37.579399,126.88916
마포구,410,서울특별시 마포구 상암산로1길 26상암중학교 옆,12,37.577496000000004,126.887772
마포구,411,서울특별시 마포구 월드컵북로 366DMC홍보관,12,37.577995,126.891472
마포구,412,서울특별시 마포구 매봉산로 37DMC산학협력연구센터 앞,12,37.575802,126.890739
마포구,413,서울특별시 마포구 매봉산로 8상암월드컵파크 3단지 후문,12,37.571476000000004,126.88968700000001
마포구,414,서울특별시 마포구 매봉산로2길 16상암동주민센터 옆,400,37.57822,126.89447
마포구,415,서울특별시 마포구 성암로 지하184디지털미디어시티역 9번출구 앞,400,37.577469,126.89736200000002
마포구,416,서울특별시 마포구 월드컵북로 502-7상암월드컵파크 1단지,400,37.575665,126.894447
마포구,417,서울특별시 은평구 수색로 지하175디지털미디어시티역 2번출구 앞,66,37.575069,126.899918
마포구,418,서울특별시 마포구 월드컵로 지하2401,26,37.570721,126.898979
마포구,419,서울특별시 마포구 월드컵로 240홈플러스 월드컵경기장점,26,37.56842,126.899429
마포구,420,서울특별시 마포구 월드컵북로47길 101,429,37.566246,126.896179
마포구,421,서울특별시 마포구 월드컵로 2121,26,37.565903000000006,126.90118400000001
마포구,422,서울특별시 마포구 증산로 87문화비축기지,429,37.569084000000004,126.894424
마포구,424,서울특별시 상암동 1715-29롯데하이마트 (상암월드컵점) ,66,37.57362,126.898048
마포구,425,서울특별시 마포구 성암로330DMC첨단산업센터,443,37.584503000000005,126.885597
마포구,426,서울특별시 마포구 마포대로 163서울신용보증재단,330,37.549061,126.954178
마포구,427,서울특별시 마포구 월드컵북로 260성산시영아파트,26,37.569584000000006,126.90381599999999
마포구,432,서울특별시 마포구 성산로 128마포중앙도서관,402,37.563339,126.908203
서대문구,110,서울특별시 서대문구 홍제천로 11446-92,9,37.568199,126.917847
서대문구,115,서울특별시 서대문구 연희로 6516,116,37.558933,126.927116
서대문구,116,서울특별시 서대문구 동교로 290일진아이윌아파트 옆,412,37.564541,126.927071
서대문구,123,서울특별시 서대문구 홍제동 277-23277-23,367,37.59433,126.94738799999999
서대문구,128,서울특별시 서대문구 연세로 3-530-16,257,37.555496000000005,126.93633999999999
서대문구,131,서울특별시 서대문구 증가로 264북가좌동354-4,320,37.584171000000005,126.911102
서대문구,132,서울특별시 서대문구 연세로5나길 1953-47,257,37.556789,126.935883
서대문구,133,서울특별시 서대문구 불광천길 150345-27,320,37.582031,126.908997
서대문구,134,서울특별시 서대문구 명물길 3331-69,447,37.557891999999995,126.93808
서대문구,135,서울특별시 서대문구 명물길 3331-69,447,37.559101,126.939178
서대문구,137,서울특별시 서대문구 연세로2다길 5860-11,211,37.556812,126.943184
서대문구,138,서울특별시 서대문구 증가로 264342-14,159,37.559177000000005,126.934525
서대문구,139,서울특별시 서대문구 연세로 4276-25,159,37.559795,126.93447900000001
서대문구,140,서울특별시 서대문구 연세로 50-189-4,447,37.560009,126.940735
서대문구,141,서울특별시 서대문구 연세로 5027,159,37.562382,126.932648
서대문구,158,서울특별시 서대문구 영천동 259-1독립문 어린이 공원,297,37.571259000000005,126.96048
서대문구,159,서울특별시 서대문구 대현동 60-11이대역 4번 출구,211,37.556953,126.94634199999999
서대문구,160,서울특별시 서대문구 북아현동 251-78아현동 가구거리,274,37.557549,126.95938100000001
서대문구,161,서울특별시 서대문구 통일로 380-4무악재역1번 출구,219,37.582245,126.950645
서대문구,162,서울특별시 서대문구 대신동 143-1봉원고가차도 밑,365,37.565269,126.946243
서대문구,163,서울특별시 서대문구 홍은동 산25-3명지전문대학교 정문 앞,99,37.583698,126.92496499999999
서대문구,164,서울특별시 서대문구 북가좌동 477-1북가좌1동 주민센터 ,15,37.574478000000006,126.910049
서대문구,165,서울특별시 서대문구 북가좌동 470-1모래내 우체국,187,37.575138,126.91394
서대문구,166,서울특별시 서대문구 연희동 530남가좌1동 주민센터,138,37.573277000000004,126.919678
서대문구,167,서울특별시 서대문구 북가좌동 70-119연가초등학교 옆,187,37.57946,126.91713
서대문구,169,서울특별시 서대문구 북가좌동 400북가좌 삼거리,15,37.573002,126.907799
서대문구,170,서울특별시 서대문구 남가좌동 124가재울 뉴타운 주유소 옆,138,37.573112,126.92244699999999
서대문구,171,서울특별시 서대문구 미근동 317-1임광빌딩 앞,7,37.564724,126.96727800000001
서대문구,172,서울특별시 서대문구 연희로 182서대문소방서,196,37.573254,126.935722
서대문구,173,서울특별시 서대문구 충정로2가 138서대문역 8번출구 앞,7,37.564777,126.966148
서대문구,174,서울특별시 서대문구 거북골로 34서대문구 거북골로 34,99,37.580589,126.923447
서대문구,175,서울특별시 서대문구 홍은동 387-16홍연2교옆,196,37.578072,126.93081699999999
서대문구,176,서울특별시 서대문구 거북골로 34서대문구 거북골로 34,99,37.581097,126.924026
서대문구,177,서울특별시 서대문구 거북골로19길 20북가좌 초등학교,15,37.577675,126.909805
서대문구,178,서울특별시 서대문구 북가좌동 352-9증산3교 앞,15,37.579876,126.906349
서대문구,179,서울특별시 서대문구 남가좌동 293-3 가좌역 4번출구 앞,9,37.569122,126.914795
서대문구,180,서울특별시 서대문구 충정로3가 56-1충정로역 7번출구 뒤,325,37.559967,126.96246299999999
서대문구,188,서울특별시 서대문구 연희로37안길 51홍은동 정원여중 입구,352,37.586388,126.93512700000001
서대문구,191,서울특별시 서대문구 응암로 66정명학원,15,37.578891999999996,126.91073600000001
서대문구,192,서울특별시 서대문구 연희동 519-7연서어린이공원,138,37.572227000000005,126.923065
서대문구,194,서울특별시 서대문구 불광천길 36증산교 앞,66,37.577315999999996,126.902969
서대문구,195,서울특별시 서대문구 연희동 446-76모래내고가차도 ,9,37.567657000000004,126.917809
서대문구,196,서울특별시 서대문구 홍제천로 48연희교차로 인근,412,37.56612,126.925896
서대문구,198,서울특별시 서대문구 충정로3가 155-4충청2교,325,37.562138,126.963776
서대문구,3100,서울특별시 서대문구 신촌로 235-1북성초교,274,37.557396000000004,126.952164
서대문구,3101,서울특별시 서대문구 연희로 242서대문구청,196,37.578381,126.93609599999999
서대문구,3102,서울특별시 서대문구 연희로 113연희삼거리,299,37.567966,126.931725
서대문구,3103,서울특별시 서대문구 통일로 지하 440-1홍제삼거리 북측,219,37.5867,126.94677
서대문구,3104,서울특별시 마포구 신촌로 지하 270e편한세상 신촌4단지 앞,274,37.558128,126.956207
서대문구,3105,서울특별시 서대문구 통일로 553홍은센트레빌 아파트 앞,312,37.597149,126.93853
서대문구,3107,서울특별시 서대문구 연희로 136연희초등학교 앞,299,37.56974,126.933327
서초구,2201,서울특별시 서초구 본마을2길 2서초구 신원동 485-13,4,37.453281,127.051483
서초구,2202,서울특별시 서초구 청계산로 지하 179서초구 신원동 276-1,184,37.448935999999996,127.054375
서초구,2203,서울특별시 서초구 청계산로 지하 179서초구 신원동 270-6,184,37.447659,127.055016
서초구,2205,서울특별시 서초구 청계산로9길 76서초구 신원동 411-69,4,37.453751000000004,127.05938
서초구,2206,서울특별시 서초구 헌릉로8길 42서초구 내곡동 123-1,214,37.454399,127.06230900000001
서초구,2207,서울특별시 서초구 헌릉로 226서초구 내곡동 184-27,214,37.454407,127.064926
서초구,2210,서울특별시 서초구 사평대로 지하 285서초구 반포동 128-7,293,37.505096,127.013107
서초구,2211,서울특별시 서초구 고무래로 34서초구 반포동 131-1,293,37.502635999999995,127.01231399999999
서초구,2212,서울특별시 서초구 고무래로 94서초구 반포동 131-3,45,37.500961,127.01792900000001
서초구,2213,서울특별시 서초구 신반포로 지하 188서초구 반포동 117-4,101,37.502232,127.00225800000001
서초구,2214,서울특별시 서초구 신반포로 지하 105서초구 반포동 128-1,101,37.504115999999996,126.99748999999998
서초구,2215,서울특별시 서초구 신반포로16길 30서초구 반포동 15-2,101,37.501713,126.995476
서초구,2217,서울특별시 서초구 나루터로4길 60서초구 잠원동 78,131,37.513046,127.005959
서초구,2219,서울특별시 서초구 신반포로 지하 188서초구 잠원동 101,464,37.506199,127.00394399999999
서초구,2220,서울특별시 서초구 신반포로 10서초구 반포동 752,107,37.500614,126.98616000000001
서초구,2221,서울특별시 서초구 방배로 110서초구 방배동 905-34,239,37.485611,126.99468200000001
서초구,2222,서울특별시 동작구 동작대로 지하 3서초구 방배동 495-3,3,37.478069,126.982033
서초구,2223,서울특별시 서초구 남부순환로 2183서초구 방배동 2577,3,37.472609999999996,126.98300900000001
서초구,2225,서울특별시 서초구 방배로9길 23서초구 방배동 504-4,106,37.473759,126.99524699999999
서초구,2226,서울특별시 서초구 방배로1길 9서초구 방배동 1034-2,136,37.475182000000004,127.00138899999999
서초구,2227,서울특별시 서초구 서초대로 지하 103서초구 방배동 874-16,239,37.489052,126.99252299999999
서초구,2228,서울특별시 서초구 방배중앙로 131서초구 방배동 686-152,324,37.489585999999996,126.986725
서초구,2229,서울특별시 서초구 방배천로 126서초구 방배동 3151,477,37.487010999999995,126.98496200000001
서초구,2230,서울특별시 동작구 사당로 지하 310서초구 방배동 2298,477,37.485828000000005,126.982628
서초구,2231,서울특별시 서초구 서초대로 4051377,161,37.496914000000004,127.02496299999999
서초구,2233,서울특별시 서초구 효령로36길 22서초동 1418,128,37.491112,127.022957
서초구,2235,서울특별시 서초구 사평대로 73서초구 방배동 1037-2,136,37.482159,127.002701
서초구,2237,서울특별시 서초구 서초중앙로 지하 31서초구 서초동 1748-38,147,37.484558,127.01487
서초구,2239,서울특별시 서초구 서초대로 지하 294서초구 서초동 1748-6,458,37.494217,127.01378600000001
서초구,2241,서울특별시 강남구 논현로 201강남구 도곡동 207,394,37.485378000000004,127.041702
서초구,2242,서울특별시 서초구 남부순환로 지하 2585서초구 양재동 105-4,445,37.483990000000006,127.03418
서초구,2243,서울특별시 서초구 강남대로 193서초구 양재동 105-4,445,37.481491,127.036728
서초구,2244,서울특별시 서초구 바우뫼로1길 35서초구 양재동 20-40,296,37.477852,127.03891000000002
서초구,2245,서울특별시 서초구 바우뫼로18길 14서초구 양재동 127-1,174,37.473614000000005,127.03051
서초구,2246,서울특별시 서초구 태봉로 131서초구 우면동 23-14,174,37.4692,127.02900700000001
서초구,2247,서울특별시 서초구 태봉로2길 24우면동 718,82,37.462639,127.026619
서초구,2248,서울특별시 서초구 양재대로2길 8우면동 785,82,37.459953000000006,127.02474199999999
서초구,2249,서울특별시 서초구 양재대로2길 74우면동 754,349,37.456234,127.019348
서초구,2250,서울특별시 서초구 양재대로2길 74우면동 754,349,37.455799,127.01628899999999
서초구,2251,서울특별시 서초구 바우뫼로12길 70더케이호텔 입구(양재2),261,37.467506,127.034477
서초구,2252,서울특별시 서초구 매헌로 16양재동 217-3,261,37.463322,127.036041
서초구,2255,서울특별시 서초구 매헌로 지하 116양재동 238,448,37.47044,127.03885700000001
서초구,2256,서울특별시 서초구 강남대로 27양재동 238,448,37.467690000000005,127.04035900000001
서초구,2257,서울특별시 서초구 청계산로 10양재동 238-1,471,37.462688,127.04611200000001
서초구,2258,서울특별시 강남구 논현로2길 22개포동 1277,248,37.471539,127.050591
서초구,2259,서울특별시 서초구 잠원로4길 지하 46잠원역 34번 출구사이,131,37.512989000000005,127.011177
서초구,2262,서울특별시 서초구 나루터로4길 60서초구 잠원동 78,131,37.516597999999995,127.00958999999999
서초구,2263,서울특별시 서초구 바우뫼로 43서초구 우면동 68-3,174,37.471928000000005,127.02683999999999
서초구,2264,서울특별시 서초구 동작대로 134이수역 1번 출구,477,37.488556,126.982574
서초구,2265,서울특별시 서초구 동작대로 196상록빌딩,358,37.494106,126.98299399999999
서초구,2266,서울특별시 서초동 1748-14서초역 3번출구,278,37.49054,127.00816299999998
서초구,2268,서울특별시 서초동 1389서초4동주민센터 ,45,37.502319,127.02226999999999
서초구,2269,서울특별시 잠원동 91-29주홍교 하부,54,37.510349,127.016052
서초구,2270,서울특별시 신원동 266서초포레스타 7단지,184,37.448966999999996,127.05773899999998
서초구,2271,서울특별시 서초구 방배로 162내방역 8번출구 앞,239,37.487865,126.994293
서초구,2272,서울특별시 서초동 1748-33교대입구 교차로,147,37.487309,127.010582
서초구,2273,서울특별시 양재동 67-12일동제약 사거리,296,37.477829,127.038269
서초구,2274,서울특별시 양재동 316-11양재시민의숲역 3번출구,448,37.46965,127.039612
서초구,2275,서울특별시 염곡동 260-1염곡치안센터 건너편,471,37.461578,127.048798
서초구,2276,서울특별시 양재동 261-23영동1교 (양재천근린공원),296,37.474388,127.03890200000001
서초구,2277,서울특별시 잠원동 84-3길마중4교 하부,54,37.51487,127.01528200000001
서초구,2279,서울특별시 서초구 서초중앙로 130교대역 5번출구 뒤,458,37.493618,127.014183
서초구,2280,서울특별시 서초구 반포대로 43서울서초고용센터 앞,147,37.484161,127.010971
서초구,2281,서울특별시 서초구 효령로 10연세사랑병원신관 앞,3,37.475978999999995,126.986282
서초구,2282,서울특별시 서초구 남부순환로 2311-12방배래미안아트힐 101동앞,136,37.477203,127.00583600000002
서초구,2283,서울특별시 서초구 서초대로 62그룹한빌딩 옆,324,37.486526,126.989166
서초구,2284,서울특별시 서초구 과천대로 870-13CJ오쇼핑 앞,227,37.468102,126.986801
서초구,2285,서울특별시 서초구 양재대로2길 33LH서초3단지 301동 맞은편,82,37.457423999999996,127.02265200000001
서초구,2286,서울특별시 서초구 탑성말길 2탑성마을입구,4,37.458549,127.055885
서초구,2287,서울특별시 서초구 능안말길 1-2능안마을입구,214,37.45562,127.067101
서초구,2288,서울특별시 서초구 안골2길 3안골마을입구,214,37.455608000000005,127.064453
서초구,2289,서울특별시 서초구 과천대로 810남태령역 2번출구,227,37.464298,126.988525
서초구,2290,서울특별시 서초구 동광로39길 93서래마을파리15구공원 앞,101,37.499413,126.99941299999999
서초구,2292,서울특별시 서초구 효령로 391무지개아파트 앞,128,37.488243,127.02701599999999
서초구,2293,서울특별시 서초구 남부순환로 2620SPC 앞,445,37.484798,127.03699499999999
서초구,2294,서울특별시 서초구 언남길 87두상빌딩 앞,420,37.475906,127.04624199999999
서초구,2297,서울특별시 서초구 서초중앙로 38남부터미널역 1번출구,147,37.485671999999994,127.015923
서초구,2298,서울특별시 서초구 서운로 221래미안서초스위트앞,45,37.502410999999995,127.021606
서초구,2299,서울특별시 서초구 효령로72길 60한전아트센터 앞,128,37.486469,127.02806100000001
서초구,2501,서울특별시 서초구 청계산로7길 43서초 포레스타5단지,184,37.450661,127.05706
서초구,2502,서울특별시 서초구 서초대로 248서초역1번출구 앞,278,37.491951,127.008553
서초구,2503,서울특별시 서초구 사평대로 349반포1동 서초빌딩 앞,45,37.503811,127.02136200000001
서초구,2504,서울특별시 서초구 강남대로 605신사역 4번출구 뒤,54,37.515881,127.019302
서초구,2505,서울특별시 서초구 강남대로 341삼원빌딩,465,37.493259,127.029533
서초구,2506,서울특별시 서초구 효령로 58LG유플러스 (방배사옥),106,37.479092,126.990677
서초구,2508,서울특별시 서초구 논현로 151도곡이스타빌,394,37.482979,127.042259
서초구,2509,서울특별시 서초구 사평대로 73KT반포지사,107,37.498371,126.99246200000002
성동구,3511,서울특별시 성동구 고산자로 123응봉동 3-10,236,37.55125,127.035103
성동구,3513,서울특별시 성동구 하왕십리동 860-1 상왕십리역 1번출구,186,37.564609999999995,127.029198
성동구,3514,서울특별시 성동구 상왕십리동 350-1 왕십리교회옆,461,37.566261,127.023697
성동구,3515,서울특별시 성동구 성수동1가 678-1서울숲 관리사무소,284,37.542815999999995,127.042084
성동구,3519,서울특별시 성동구 용답길 86용답역 1번 출구,134,37.562607,127.051308
성동구,3525,서울특별시 성동구 금호로 30독서당 인문아카데미센터,387,37.546089,127.02507
성동구,3527,서울특별시 성동구 난계로 100왕십리 자이아파트 103동 인근,74,37.56179,127.024391
성동구,3530,서울특별시 성동구 무학봉길 35왕십리자이아파트 후문(삼거리),74,37.560146,127.02636000000001
성동구,3531,서울특별시 성동구 난계로 20논골사거리(금호도서관 입구),43,37.554778999999996,127.024841
성동구,3532,서울특별시 성동구 무학봉길 35왕십리KCC스위첸아파트,74,37.56068,127.026779
성동구,3538,서울특별시 성동구 광나루로 130서울숲 IT캐슬,370,37.550892,127.044762
성동구,506,서울특별시 성동구 광나루로 249송정금호어울림 아파트 앞,271,37.549061,127.05779299999999
성동구,507,서울특별시 성동구 성수이로 147아이에스비즈타워 앞,271,37.548203,127.05711399999998
성동구,508,서울특별시 성동구 성수이로 118라성아카데미타워 앞,271,37.545165999999995,127.05751000000001
성동구,509,서울특별시 성동구 뚝섬로 379이마트 버스정류소 옆,360,37.539654,127.05258899999998
성동구,510,서울특별시 성동구 왕십리로11길 9서울숲남문 버스정류소 옆,284,37.541222,127.0438
성동구,511,서울특별시 성동구 왕십리로 지하77서울숲역 4번 출구 옆,284,37.544582,127.04460900000001
성동구,512,서울특별시 성동구 아차산로 18뚝섬역 1번 출구 옆,370,37.548561,127.045006
성동구,513,서울특별시 성동구 아차산로 18뚝섬역 5번 출구 정류소 옆,335,37.546307,127.049805
성동구,514,서울특별시 성동구 아차산로 171성수사거리 버스정류장 앞,152,37.54258,127.063309
성동구,518,서울특별시 성동구 마장동 610청계천 박물관 앞,0,37.571526,127.03535500000001
성동구,519,서울특별시 성동구 홍익동 590양지사거리,186,37.566994,127.02991499999999
성동구,520,서울특별시 성동구 하왕십리동 960-3상왕십리역 4번 출구 앞,186,37.563858,127.03031899999999
성동구,521,서울특별시 성동구 행당동 188-9왕십리역 11번 출구 앞,154,37.561446999999994,127.03492
성동구,522,서울특별시 성동구 금호동3가 1575-3금호역 1번출구 앞,195,37.548640999999996,127.016426
성동구,523,서울특별시 성동구 옥수동 산5-148옥수동성당 옆,195,37.543663,127.01406100000001
성동구,524,서울특별시 성동구 금호동2가 1220-1래미안금호하이리버 아파트 102동 옆,43,37.5522,127.02505500000001
성동구,525,서울특별시 성동구 행당동 20-2한양대병원사거리,452,37.558052,127.040352
성동구,526,서울특별시 성동구 용답동 224-1용답토속공원 앞,134,37.563511,127.056725
성동구,529,서울특별시 성동구 용답동 224-3장안평역 8번 출구 앞,117,37.561371,127.06366000000001
성동구,530,서울특별시 성동구 하왕십리동 286-24청계벽산아파트 텐즈힐아파트 정류소,186,37.568748,127.030403
성동구,533,서울특별시 성동구 금호동4가 1101우리은행 금호동 지점 앞,387,37.548149,127.02108799999999
성동구,534,서울특별시 성동구 금호동2가 1205-1금호사거리,387,37.548634,127.025726
성동구,535,서울특별시 성동구 응봉동 134-26응봉삼거리,236,37.553986,127.033592
성동구,536,서울특별시 성동구 행당동 347-11행당역 2번출구 앞,74,37.55735,127.02921299999998
성동구,537,서울특별시 성동구 행당동 10한양대후문역 부근 (양키캔들 앞),452,37.560356,127.041397
성동구,538,서울특별시 성동구 용답동 102-1답십리역 8번출구 앞,163,37.56765,127.05115500000001
성동구,550,서울특별시 성동구 마장동 610 서울시설공단 앞,0,37.57164,127.03566000000001
성동구,556,서울특별시 성동구 금호동4가 367-1달맞이공원,423,37.542053,127.020401
성동구,557,서울특별시 성동구 무학로10길 6도선동 주민센터 앞,461,37.567642,127.025696
성동구,558,서울특별시 성동구 고산자로 260성동광진 교육지원청 앞,154,37.564606,127.03652199999999
성동구,559,서울특별시 성동구 왕십리광장로 10-1왕십리역 4번 출구 건너편,154,37.561096,127.03679699999999
성동구,560,서울특별시 성동구 동일로 213비전교회 앞,388,37.551204999999996,127.068932
성동구,561,서울특별시 성동구 왕십리로 64서울숲역 2번출구 앞,284,37.542815999999995,127.04467
성동구,562,서울특별시 성동구 동일로 313군자지하보도 앞,127,37.559246,127.07341000000001
성동구,563,서울특별시 성동구 광나루로 302성동세무서 건너편,432,37.547913,127.062752
성동구,564,서울특별시 성동구 동호로 99금호역 3번출구,195,37.547928000000006,127.01557199999999
성동구,565,서울특별시 성동구 한림말길 56옥수역 3번출구,423,37.541363,127.01766200000002
성동구,567,서울특별시 성동구 아차산로 113성수역 2번출구 앞,271,37.54459,127.057083
성동구,568,서울특별시 동대문구 청계천로 417청계8가사거리 부근,31,37.571102,127.02356
성동구,569,서울특별시 성동구 독서당로 381응봉동현대아파트 정류소,236,37.549583,127.030243
성동구,578,서울특별시 성동구 광나루로 303-1성동세무서 부근,432,37.548286,127.06208799999999
성동구,579,서울특별시 성동구 마장로 292-1마장역 4번출구,268,37.565205,127.041847
성동구,580,서울특별시 성동구 무수막길 97신금호역 3번출구 뒤,43,37.554493,127.02021
성동구,581,서울특별시 성동구 용답25길 1용답초등학교,134,37.561012,127.05423700000001
성동구,582,서울특별시 성동구 성수일로 27경일중학교 앞,335,37.543178999999995,127.04908
성동구,583,서울특별시 성동구 마장로39길 51청계천 생태교실 앞,268,37.56797,127.04688999999999
성동구,585,서울특별시 성동구 성수동2가 569-3성수2가1동 공영주차장 인근,360,37.536808,127.055489
성동구,586,서울특별시 성동구 마장로42길 14마장동 주민센터,268,37.565940999999995,127.045395
성동구,587,서울특별시 성동구 성수동2가 276-5KEB하나은행 성수중앙지점,335,37.545418,127.05264299999999
성동구,589,서울특별시 성동구 아차산로 100성수동2가 315-105,271,37.544159,127.056656
성동구,594,서울특별시 성동구 자동차시장길 49중랑물재생센터,134,37.558365,127.056908
성북구,1303,서울특별시 성북구 동소문로13길 38돈암초교,241,37.591694,127.012497
성북구,1304,서울특별시 성북구 성북로 132-1만해공원,491,37.594402,126.99231
성북구,1305,서울특별시 성북구 보문로 168성북구청,206,37.589329,127.016434
성북구,1306,서울특별시 성북구 동소문로 2성북구 동소문동2가 2-3,64,37.588448,127.00670600000001
성북구,1308,서울특별시 성북구 안암로 69안암로터리 버스정류장,153,37.582592,127.028976
성북구,1313,서울특별시 성북구 정릉로27가길 28-2성북구 정릉동 138-15,418,37.603245,127.014191
성북구,1314,서울특별시 성북구 아리랑로19길 20성북구 정릉동 966-62,418,37.60244,127.01168799999999
성북구,1315,서울특별시 성북구 보국문로29길 23성북구 정릉동 966-1,439,37.607760999999996,127.003281
성북구,1316,서울특별시 성북구 보국문로29길 23성북구 정릉동 966-1,439,37.607262,127.00283799999998
성북구,1317,서울특별시 성북구 솔샘로17길 8정릉동 746-2,395,37.612774,127.00653100000001
성북구,1318,서울특별시 성북구 동소문로 248동소문로248,162,37.603085,127.02478799999999
성북구,1319,서울특별시 성북구 종암로 147성북구 하월곡동 104-134,198,37.603043,127.033272
성북구,1320,서울특별시 성북구 종암로 88성북구 종암동 15-7,198,37.599284999999995,127.034622
성북구,1321,서울특별시 성북구 종암로3길 37-2성북구 종암동 12-33,298,37.593288,127.036667
성북구,1322,서울특별시 성북구 종암로3길 37-2성북구 종암동 12-33,144,37.598068,127.039276
성북구,1323,서울특별시 성북구 월곡로 지하 107성북구 종암동 113-10,144,37.600433,127.04020700000001
성북구,1325,서울특별시 성북구 화랑로 148성북구 상월곡동 산7-1,384,37.605808,127.04773700000001
성북구,1326,서울특별시 성북구 화랑로 지하 157성북구 상월곡동 35-9,384,37.606068,127.04731799999999
성북구,1327,서울특별시 성북구 화랑로 지하 157성북구 상월곡동 26-1,384,37.607341999999996,127.05068200000001
성북구,1328,서울특별시 성북구 월곡로 지하 107성북구 하월곡동 37-4,144,37.602627000000005,127.041634
성북구,1332,서울특별시 노원구 화랑로 지하 347-1성북구 석관동 134-4,57,37.613556,127.066093
성북구,1333,서울특별시 성북구 돌곶이로22길 21성북구 석관동 202-3,57,37.610523,127.059799
성북구,1334,서울특별시 성북구 화랑로 296성북구 석관동 384-2,57,37.612999,127.06131
성북구,1336,서울특별시 성북구 보문로 192성북3교 위,241,37.591251,127.014008
성북구,1337,서울특별시 성북구 인촌로7길 120돈암성당 옆,206,37.590382,127.01713600000001
성북구,1338,서울특별시 성북구 인촌로7길 24용문2교 옆,164,37.586899,127.020752
성북구,1339,서울특별시 성북구 월계로 28삼성전자서비스 성북센터,22,37.610569,127.03350800000001
성북구,1340,서울특별시 성북구 한천로 693광운초등학교 앞,8,37.61956,127.053802
성북구,1342,서울특별시 성북구 성북로21길 32성북쉼터 앞,225,37.592617,126.997932
성북구,1343,서울특별시 성북구 동소문로 11한성대7번출구 앞,64,37.589249,127.007378
성북구,1344,서울특별시 성북구 아리랑로 82아리랑시네센터 앞,418,37.600288,127.013702
성북구,1346,서울특별시 성북구 길음로13길 22길음8골어린이공원 옆,442,37.608978,127.020248
성북구,1347,서울특별시 성북구 길음로 33길음래미안아파트817동 상가 앞,442,37.607105,127.0215
성북구,1348,서울특별시 성북구 길음로 20성북제일새마을금고 본점 앞,162,37.604752000000005,127.02275800000001
성북구,1349,서울특별시 성북구 한천로101길 18월계2교 버스정유장 앞,270,37.623829,127.050201
성북구,1351,서울특별시 성북구 안암로 17SK제삼주유소 앞,31,37.579449,127.024193
성북구,1352,서울특별시 성북구 낙산길 255e 편한세상 보문아파트 내,164,37.583881,127.01709699999999
성북구,1353,서울특별시 성북구 동소문로34길 73금호어울림센터힐 내,162,37.60083,127.023552
성북구,1354,서울특별시 성북구 종암로 지하 1고려대학교 2번출구,298,37.590714,127.036194
성북구,1355,서울특별시 성북구 보문로30길 29보문2교,206,37.588699,127.01891299999998
성북구,1357,서울특별시 성북구 보국문로 91북한산보국문역,395,37.612072,127.008133
성북구,1358,서울특별시 성북구 보국문로 7-10정릉도서관 앞,418,37.60479,127.010582
성북구,1359,서울특별시 성북구 월계로 172장위뉴타운 꿈에 숲 코오롱 하늘채 앞,391,37.619801,127.045097
성북구,1360,서울특별시 성북구 정릉로 272정릉역,418,37.603096,127.013504
성북구,1361,서울특별시 성북구 성북로14가길 23홍익중고 입구,64,37.592842,127.002121
성북구,1362,서울특별시 성북구 보문로 112-2보문역6번출구 앞,164,37.585097999999995,127.019676
성북구,1363,서울특별시 성북구 보문로22길 28보문4교 인근,164,37.583752000000004,127.02195
성북구,1364,서울특별시 성북구 성북로 25성북동 치안센터 앞,64,37.590171999999995,127.004089
성북구,1365,서울특별시 성북구 성북로 102-10선잠단지 앞,225,37.593361,126.99909199999999
성북구,1366,서울특별시 성북구 월곡로 74일신초등학교 옆,144,37.59972,127.04038200000001
성북구,1367,서울특별시 성북구 길음로7길 20길음문화복합미디어센터,162,37.603512,127.02256000000001
성북구,1368,서울특별시 성북구 보문로34길 87성신여대입구 교차로,206,37.59148,127.020103
성북구,1369,서울특별시 성북구 동소문로 327미아사거리,22,37.609131,127.030029
성북구,1370,서울특별시 성북구 성북로 132-4복자사랑 피정의 집,491,37.59454,126.995209
성북구,1372,서울특별시 성북구 인촌로 113KEB은행 고대점,153,37.586559,127.03196000000001
성북구,1373,서울특별시 성북구 화랑로 63성북구보건소 건너편,144,37.602290999999994,127.038979
송파구,1201,서울특별시 송파구 송파대로 지하 257송파구 가락동 214-3,368,37.493179,127.118546
송파구,1203,서울특별시 송파구 송파대로28길 24송파구 가락동 100-2,368,37.493728999999995,127.120621
송파구,1204,서울특별시 송파구 오금로 지하 4993번출구,75,37.493342999999996,127.14473000000001
송파구,1205,서울특별시 송파구 올림픽로 8송파구 잠실동 50,481,37.510428999999995,127.071373
송파구,1206,서울특별시 송파구 올림픽로 지하 23송파구 잠실동 53-4,55,37.51128,127.078239
송파구,1207,서울특별시 송파구 성내천로 233송파구 마천동 200-58,221,37.499756,127.15250400000001
송파구,1208,서울특별시 송파구 풍성로14길 19송파구 풍납동 465,51,37.529675,127.11978899999998
송파구,1209,서울특별시 송파구 오금로 20송파구 신천동 15,476,37.520451,127.104202
송파구,1210,서울특별시 송파구 올림픽로 293-19송파구 신천동 28,356,37.513126,127.10096000000001
송파구,1211,서울특별시 송파구 석촌호수로 298송파구 신천동 33,258,37.512104,127.10778
송파구,1212,서울특별시 송파구 송파대로 지하 354송파구 가락동 459-4,427,37.499413,127.11286899999999
송파구,1213,서울특별시 송파구 양재대로72길 47-8송파구 오금동 6-2,289,37.507659999999994,127.13273600000001
송파구,1214,서울특별시 송파구 오금로 지하 321송파구 오금동 44-2,460,37.502594,127.127647
송파구,1215,서울특별시 송파구 양재대로 지하 1233송파구 방이동 89-28,42,37.516571,127.13153799999999
송파구,1217,서울특별시 송파구 충민로4길 19송파구 장지동 839-4,28,37.479271000000004,127.12957800000001
송파구,1218,서울특별시 송파구 양재대로 지하 1127송파구 방이동 217-2,65,37.508967999999996,127.12583899999998
송파구,1220,서울특별시 송파구 백제고분로15길 7송파구 잠실동 230,114,37.505691999999996,127.08403799999999
송파구,1221,서울특별시 송파구 백제고분로 188잠실포스코더샵,114,37.5042,127.08753200000001
송파구,1222,서울특별시 송파구 백제고분로 95송파구 잠실동 19-10,114,37.511982,127.085052
송파구,1224,서울특별시 송파구 올림픽로 74송파구 잠실동 20,55,37.512169,127.078934
송파구,1226,서울특별시 송파구 올림픽로35길 16송파구 신천동 20-50,353,37.520077,127.112366
송파구,1227,서울특별시 송파구 오금로 지하 499송파구 거여동 20-14,75,37.493126000000004,127.143822
송파구,1228,서울특별시 송파구 거마로 51송파구 거여동 133-60,75,37.4977,127.146202
송파구,1229,서울특별시 송파구 양산로 15송파구 거여동 289-9,75,37.490688,127.143127
송파구,1230,서울특별시 송파구 동남로 203송파구 가락동 195-1,192,37.495670000000004,127.130592
송파구,1231,서울특별시 송파구 석촌호수로12길 3-5송파구 잠실동 31,356,37.514088,127.09903
송파구,1232,서울특별시 송파구 석촌호수로12길 3-19송파구 잠실동 39,98,37.512089,127.09619099999999
송파구,1233,서울특별시 송파구 석촌호수로12길 3-17송파구 잠실동 38,98,37.510509000000006,127.093369
송파구,1235,서울특별시 송파구 잠실로 62송파구 잠실동 36-1,114,37.508339,127.08814199999999
송파구,1239,서울특별시 송파구 정의로 30송파구 문정동 396-3,228,37.480843,127.11801100000001
송파구,1240,서울특별시 송파구 새말로 62송파구 문정동 305-24,228,37.480576,127.118568
송파구,1241,서울특별시 송파구 새말로 62송파구 문정동 398-5,228,37.481239,127.11979699999999
송파구,1242,서울특별시 송파구 법원로 101송파구 문정동 361-1,228,37.48209,127.119743
송파구,1243,서울특별시 송파구 법원로 101문정동 346-2,228,37.484531,127.12016299999999
송파구,1244,서울특별시 송파구 법원로 101문정동 619,228,37.481537,127.122124
송파구,1245,서울특별시 송파구 법원로 101문정동 619,28,37.479465000000005,127.125328
송파구,1246,서울특별시 송파구 송파대로 지하 82장지동 201-5,28,37.477509000000005,127.126328
송파구,1247,서울특별시 송파구 법원로 101문정동 627,28,37.478821,127.123512
송파구,1248,서울특별시 송파구 위례성대로 114송파구 방이동 75,410,37.513962,127.121674
송파구,1249,서울특별시 송파구 도곡로 446송파구 잠실동 128,55,37.505463,127.077347
송파구,1250,서울특별시 송파구 중대로 16송파구 중대로 16,389,37.490047,127.110748
송파구,1251,서울특별시 송파구 송파동 68 석촌역 2번출구,300,37.505932,127.10775
송파구,1253,서울특별시  송파구 가락동 10-15 오금역 3번 출구 뒤,460,37.501652,127.12818100000001
송파구,1257,서울특별시 송파구 가락동 214-15 가락시장역 롯데마트앞,368,37.4921,127.117752
송파구,1258,서울특별시 서울 송파구 가락동 195-4가락미륭아파트 앞,192,37.493198,127.128998
송파구,1259,서울특별시 송파구 오금동 17-20방이역 1번출구,65,37.508984000000005,127.126595
송파구,1260,서울특별시 송파구 방이동 225-1방이동 한양3차아파트 옆,65,37.506302000000005,127.121399
송파구,1262,서울특별시 송파구 송파동 2-3 송파여성문화회관 앞,300,37.505802,127.10971799999999
송파구,1263,서울특별시 송파구 장지동 861-6장지공영차고지,62,37.480540999999995,127.13701599999999
송파구,1264,서울특별시 송파구 풍납동 490-16천호역 10번 출구 앞,249,37.538582,127.122803
송파구,1265,서울특별시 송파구 문정동 38-3문정동 근린공원,202,37.485989000000004,127.12476299999999
송파구,1266,서울특별시 송파구 문정동 627장지동 글샘 공원,228,37.478809000000005,127.120003
송파구,1267,서울특별시 송파구 올림픽로 424올림픽공원 남2문 앞,410,37.51424,127.12307
송파구,1268,서울특별시 송파구 방이동 88-21 몽촌토성역 1번출구 옆,353,37.517288,127.11419699999999
송파구,1269,서울특별시 송파구 올림픽로 135리센츠아파트 ,98,37.511944,127.09121699999999
송파구,1271,서울특별시 송파구 동남로 263송파도서관,199,37.499984999999995,127.135391
송파구,1274,서울특별시 송파구 올림픽로 565영파여고 앞,51,37.532848,127.121048
송파구,1275,서울특별시 송파구 마천로25길 18거여초등학교 옆,326,37.504589,127.139366
송파구,1277,서울특별시 송파구 마천로 164오금동 송파 참병원,326,37.503757,127.137093
송파구,1278,서울특별시 송파구 올림픽로 336송파구청 교차로,258,37.515831,127.106796
송파구,1279,서울특별시 송파구 성내천로39길 4마천금호어울림 1차아파트 건너편,221,37.497516999999995,127.154678
송파구,1280,서울특별시 송파구 성내천로47길 23송파파크데일 2단지입구 앞 주차장,221,37.495659,127.157173
송파구,1282,서울특별시 송파구 오금로51길 56송파소방서 맞은편(성내4교),199,37.499874,127.141479
송파구,1283,서울특별시 송파구 오금로 363오금공원 사거리,289,37.505455,127.131752
송파구,1285,서울특별시 송파구 위례광장로 136위례별 유치원 뒤,222,37.477470000000004,127.14459199999999
송파구,1286,서울특별시 송파구 위례광장로 120위례중앙푸르지오 1단지 앞,62,37.474377000000004,127.140671
송파구,1287,서울특별시 송파구 위례순환로 419위례아이파크 101동 맞은편,222,37.477531,127.14151799999999
송파구,1288,서울특별시 송파구 송이로 238문정중교 사거리,202,37.487999,127.13108799999999
송파구,1289,서울특별시 송파구 토성로 2풍납동 자전거보관소,244,37.531471,127.111092
송파구,1290,서울특별시 송파구 위례광장로 121위례송파꿈에그린아파트24단지 앞 성벽 다리 밑,62,37.474659,127.13771799999999
송파구,1291,서울특별시 송파구 강동대로 232서울체육고등학교 앞,42,37.521938,127.13186599999999
송파구,1293,서울특별시 송파구 석촌호수로 176석촌호교차로 (스타벅스 앞),414,37.506561,127.096558
송파구,1295,서울특별시 송파구 올림픽로 305잠실역 8번출구,356,37.513962,127.10030400000001
송파구,1296,서울특별시 송파구 석촌호수로12길 1-16석촌호수교차로 (송파나루근린공원 앞),492,37.508678,127.10343200000001
송파구,1297,서울특별시 송파구 석촌호수로12길 1-16석촌호수교차로(동호 팔각정 앞),492,37.509201000000004,127.104118
송파구,1299,서울특별시 송파구 강동대로 286송파소방서 (방이119안전센터),42,37.519878000000006,127.136711
송파구,1300,서울특별시 송파구 성내천로16길 17오륜사거리,326,37.506939,127.13922099999999
송파구,2601,서울특별시 송파구 삼학사로 136석촌호수 서호사거리,414,37.506747999999995,127.098831
송파구,2603,서울특별시 송파구 충민로 120송파 글마루 도서관,28,37.480801,127.13034099999999
송파구,2604,서울특별시 송파구 토성로 2삼표레미콘 앞,244,37.531310999999995,127.111282
송파구,2605,서울특별시 송파구 송파대로 지하 6복정역 1번 출구 앞,315,37.471298,127.12709
송파구,2606,서울특별시 송파구 마천로44길 15위례동주민센터 맞은편 근린공원,222,37.481739000000005,127.143227
송파구,2607,서울특별시 송파구 송파대로 지하 6복정역 2번출구 후문 (장지치안센터),315,37.47065,127.127113
송파구,2608,서울특별시 송파구 올림픽로 326송파구청,258,37.514359000000006,127.10619399999999
송파구,2616,서울특별시 송파구 문정로 196거여동 사거리,199,37.496078000000004,127.140106
송파구,2617,서울특별시 송파구 오금로 지하 402가락삼환아파트 앞,199,37.496181,127.13803100000001
양천구,700,서울특별시 양천구 목동 559KB국민은행 염창역 지점 앞,272,37.546848,126.872772
양천구,701,서울특별시 양천구 목동 813목동사거리 부근,361,37.532803,126.86393000000001
양천구,702,서울특별시 양천구 목동 904-3목4동주민센터 옆,369,37.532543,126.868729
양천구,703,서울특별시 양천구 목동 451오목교역 7번출구 앞,100,37.524063,126.87558
양천구,704,서울특별시 양천구 신정동 1095남부법원검찰청 교차로,204,37.523254,126.864906
양천구,706,서울특별시 양천구 신월동 894신정네거리역,33,37.521881,126.851753
양천구,707,서울특별시 양천구 중앙로 209신정3동주민센터,155,37.515156,126.854897
양천구,708,서울특별시 양천구 신정동 319-3서울출입국관리사무소 앞,204,37.51897,126.869965
양천구,709,서울특별시 양천구 신정동 760-2신정3동 현장민원실 앞,97,37.511585,126.84156000000002
양천구,710,서울특별시 양천구 신정동 759-2서부화물트럭터미널 사거리,97,37.510658,126.84253700000001
양천구,711,서울특별시 양천구 신월동 1063-4신일해피트리아파트 앞,33,37.517059,126.84848799999999
양천구,712,서울특별시 양천구 신월동 905강월초교입구 사거리,193,37.516998,126.83831799999999
양천구,713,서울특별시 양천구 신월동 790양서중학교 옆,171,37.533046999999996,126.82995600000001
양천구,714,서울특별시 양천구 신월동 790한국SGI 양천문화회관 앞,171,37.532546999999994,126.830803
양천구,716,서울특별시 양천구 목동서로 355햇빛문고 앞,204,37.517281,126.86433400000001
양천구,719,서울특별시 양천구 등촌로 2홍익병원앞 교차로,361,37.530369,126.864258
양천구,720,서울특별시 양천구 신월로 97서울강월초등학교 앞,193,37.516197,126.8349
양천구,722,서울특별시 양천구 신월로 328LG전자베스트샵 신정점 ,435,37.521435,126.85738400000001
양천구,723,서울특별시 양천구 목동서로161SBS방송국,100,37.529163,126.872749
양천구,724,서울특별시 양천구 신정동 621-14계남공원 입구 주출입구 좌측,155,37.510681,126.857399
양천구,725,서울특별시 양천구 남부순환로88길5-16양강중학교앞 교차로,33,37.524334,126.850548
양천구,726,서울특별시 양천구 목동중앙로 49 목동3단지 시내버스정류장,369,37.534389000000004,126.869598
양천구,729,서울특별시 양천구 신정동 236 서부식자재마트 건너편,30,37.51038,126.866798
양천구,731,서울특별시 양천구 목동동로 316-6서울시 도로환경관리센터,100,37.5299,126.87654099999999
양천구,732,서울특별시 양천구 화곡로 59신월동 이마트,417,37.539551,126.8283
양천구,733,서울특별시 양천구 신정이펜1로50 신정이펜하우스314동,408,37.514099,126.831001
양천구,734,서울특별시 양천구 신정동 310-8 신트리공원 입구,155,37.51395,126.85605600000001
양천구,735,서울특별시 양천구 목동중앙로 70 영도초등학교,369,37.536429999999996,126.871521
양천구,736,서울특별시 양천구 남부순환로70길11-9오솔길공원,263,37.52219,126.8367
양천구,737,서울특별시 양천구 신월로 894 장수공원,33,37.52256,126.84948
양천구,739,서울특별시 양천구 신월동 263신월사거리,171,37.536201,126.827797
양천구,740,서울특별시 양천구 가로공원로 133으뜸공원,171,37.536369,126.83171100000001
양천구,741,서울특별시 양천구 신월동 258화곡로 입구 교차로,417,37.53952,126.825401
양천구,742,서울특별시 양천구 등촌로 236등촌역 5번 출구 뒤,78,37.550732,126.86457800000001
양천구,743,서울특별시 양천구 신정동 735-5현대6차아파트 101동 옆,97,37.5089,126.84268200000001
양천구,744,서울특별시 양천구 목동중앙로 212 앞신목동역 2번 출구,108,37.543842,126.882545
양천구,745,서울특별시 양천구 오목로 31 부근강서초등학교,263,37.522282000000004,126.839699
양천구,746,서울특별시  양천구 목동 902-5 목동2단지 상가,68,37.536503,126.877747
양천구,747,서울특별시 양천구 목동 903-6목동3단지 상가,68,37.53458,126.875648
양천구,749,서울특별시 양천구 안양천로 1071이대 목동병원 앞,208,37.537228000000006,126.88661200000001
양천구,750,서울특별시 양천구 신정로7길 92연의근린공원 건너편,193,37.512157,126.835625
양천구,752,서울특별시 양천구 목동중앙남로 100성원2차 아파트,104,37.542183,126.863304
양천구,754,서울특별시 양천구 목동서로 38목동1단지아파트 118동 앞 (월촌초등학교 정류소 옆),68,37.541142,126.876678
양천구,755,서울특별시 양천구 목동서로 38목동1단지아파트 상가 앞 (월촌중학교 버스정류소 옆),208,37.537867999999996,126.881409
양천구,756,서울특별시 양천구 목동동로 298목동주차장,100,37.52668,126.876167
양천구,757,서울특별시 양천구 신정이펜1로 99신정이펜하우스 1단지아파트 입구 사거리,408,37.514278000000004,126.82874299999999
양천구,758,서울특별시 양천구 목동동로 33한사랑교회 앞,155,37.514721,126.8592
양천구,759,서울특별시 양천구 오목로3길 32보아스아파트 앞,263,37.524071,126.8386
양천구,760,서울특별시 양천구 남부순환로 699잣절보도육교 아래,97,37.506821,126.84429899999999
양천구,763,서울특별시 양천구 목동동로 10목동11단지 아파트,155,37.511318,126.85862
양천구,764,서울특별시 양천구 목동동로 323목동자전거무료대여소,100,37.531029,126.87589299999999
영등포구,200,서울특별시 영등포구 의사당대로 11,280,37.528728,126.914925
영등포구,201,서울특별시 영등포구 국회대로76길 1013-1,311,37.531239,126.921333
영등포구,202,서울특별시 영등포구 여의공원로 101101,311,37.528816,126.92453
영등포구,203,서울특별시 영등포구 국회대로 지하758758,280,37.528057000000004,126.918701
영등포구,204,서울특별시 영등포구 의사당대로 88,280,37.528164000000004,126.917023
영등포구,205,서울특별시 영등포구 의사당대로 9797,317,37.526264000000005,126.92050900000001
영등포구,206,서울특별시 영등포구 여의공원로 1313,317,37.524665999999996,126.918022
영등포구,207,서울특별시 영등포구 여의동로 지하343여의나루역 1번출구 앞,253,37.526989,126.932098
영등포구,209,서울특별시 영등포구 국제금융로 2424-3,185,37.524612,126.927834
영등포구,210,서울특별시 영등포구 국제금융로 10IFC몰앞,185,37.526066,126.925537
영등포구,211,서울특별시 영등포구 국회대로68길 726,191,37.522228000000005,126.924637
영등포구,212,서울특별시 영등포구 의사당대로 8827-1,191,37.521361999999996,126.92346200000001
영등포구,213,서울특별시 영등포구 여의대로 3827,317,37.521908,126.918953
영등포구,214,서울특별시 영등포구 여의대로 38금융감독원 앞,317,37.523022,126.920837
영등포구,215,서울특별시 영등포구 국제금융로7길 37여의도고등학교 앞,253,37.524837,126.93490600000001
영등포구,216,서울특별시 영등포구 국제금융로7길 27삼부아파트 1동 앞,253,37.523491,126.932899
영등포구,217,서울특별시 영등포구 국제금융로8길 2NH농협은행 앞,185,37.522079,126.93036699999999
영등포구,218,서울특별시 영등포구 여의나루로 76증권거래소 앞,185,37.523277,126.92923700000001
영등포구,219,서울특별시 영등포구 의사당대로 127롯데캐슬엠파이어 옆,191,37.520695,126.925835
영등포구,220,서울특별시 영등포구 의사당대로 110미성아파트 A동 앞,191,37.519363,126.926048
영등포구,221,서울특별시 영등포구 여의대방로 439여의도초등학교 앞,456,37.522675,126.93778999999999
영등포구,222,서울특별시 영등포구 63로 45시범아파트버스정류장 옆,456,37.520271,126.93888100000001
영등포구,223,서울특별시 영등포구 국제금융로 108-6진주아파트상가 앞,125,37.519314,126.933167
영등포구,224,서울특별시 영등포구 국제금융로 86롯데캐슬 앞,125,37.520088,126.93236499999999
영등포구,225,서울특별시 영등포구 의사당대로 지하166앙카라공원 앞,125,37.517368,126.929253
영등포구,226,서울특별시 영등포구 의사당대로 지하166샛강역 1번출구 앞,125,37.517765000000004,126.92841299999999
영등포구,227,서울특별시 영등포구 양화동 17-4양평2나들목 보행통로 입구,108,37.544666,126.88835900000001
영등포구,228,서울특별시 영등포구 양평동4가 202-1선유도역 3번출구 앞,118,37.53846,126.894508
영등포구,229,서울특별시 영등포구 양평동4가 20-4양평1 보행육교 앞,118,37.535872999999995,126.89218100000001
영등포구,230,서울특별시 영등포구 당산로 111-2영등포구청역 1번출구,6,37.524634999999996,126.896217
영등포구,231,서울특별시 영등포구 양평동1가 115-2남부고용노동지청 남측,6,37.524506,126.891823
영등포구,232,서울특별시 영등포구 양평동3가 14-1양평우림 이비즈센타 앞,183,37.52565,126.887817
영등포구,233,서울특별시 영등포구 양평동3가 60-1한국연예사관 건물 앞,6,37.528488,126.89164699999999
영등포구,234,서울특별시 영등포구 신길동 399 영등포구민체육센터 앞,86,37.500462,126.905846
영등포구,235,서울특별시 영등포구 신길동 250-4 신길동 우리은행 옆,86,37.504566,126.910233
영등포구,236,서울특별시 영등포구 문래동3가 68-1문래동자이아파트 앞,290,37.516155,126.89461499999999
영등포구,238,서울특별시 영등포구 당산동4가 96-2제2구민체육센타 앞,279,37.526385999999995,126.90275600000001
영등포구,239,서울특별시 영등포구 영등포동7가 58-2유스호스텔 앞,279,37.525852,126.903282
영등포구,240,서울특별시 영등포구 문래동3가 55-12 문래역 4번출구 앞,290,37.518738,126.895576
영등포구,241,서울특별시 영등포구 도림동 255-2 신길우성1차아파트 앞 공원,399,37.505328999999996,126.89848300000001
영등포구,242,서울특별시 영등포구 신길동 215-28 신길선원가와인아파트 앞,431,37.510933,126.910225
영등포구,243,서울특별시 영등포구 양평동3가 48-1이앤씨드림타워 앞,6,37.527084,126.89138
영등포구,244,서울특별시 영등포구 영등포동8가 82-4 영등포삼환아파트 앞,279,37.530079,126.905708
영등포구,245,서울특별시 영등포구 당산동4가 35-24 삼성생명 당산사옥 앞,6,37.528263,126.896629
영등포구,247,서울특별시 영등포구 당산동5가 14-4당산역 10번출구 앞,79,37.533688,126.902107
영등포구,248,서울특별시 영등포구 여의도동8-13초원아파트 앞,311,37.531055,126.92421000000002
영등포구,249,서울특별시 영등포구 여의도동 8여의도중학교 옆,253,37.52412,126.93654599999999
영등포구,250,서울특별시 영등포구 신길동 249우주마루아파트 201동 앞,354,37.507641,126.92308
영등포구,251,서울특별시 영등포구 신길동853서울지방병무청 버스정류장,354,37.504494,126.921951
영등포구,252,서울특별시 영등포구 신길동4884보라매역4번출구(순흥빌딩),294,37.499977,126.92003600000001
영등포구,253,서울특별시 영등포구 신길동3596남서울아파트 14동앞,86,37.500648,126.90951499999998
영등포구,255,서울특별시 영등포구 신길동373-1도림4거리,399,37.506572999999996,126.901131
영등포구,256,서울특별시 영등포구 도림동 159-70동아에코빌입구,399,37.509476,126.8993
영등포구,257,서울특별시 영등포구 신길동95-256신길삼거리(우리은행),490,37.513844,126.919357
영등포구,258,서울특별시 영등포구 영등포동1가35신길역3번출구,231,37.517693,126.914299
영등포구,259,서울특별시 영등포구 신길동1368대방역6번출구,178,37.513591999999996,126.92593400000001
영등포구,260,서울특별시 영등포구 여의서로 160여의도 마리나선착장 앞,467,37.533817,126.91249099999999
영등포구,262,서울특별시 영등포구 문래로 56영문초등학교 사거리,468,37.519928,126.889183
영등포구,263,서울특별시 영등포구 선유로 34근로자회관 사거리,468,37.517151,126.888626
영등포구,264,서울특별시 영등포구 영등포로 96교보생명보험 앞,6,37.521931,126.891617
영등포구,265,서울특별시 영등포구 영등포로 124영등포유통상가 사거리,290,37.521133,126.89653799999999
영등포구,266,서울특별시 영등포구 영등포로 177영등포청과시장 사거리,27,37.520294,126.901192
영등포구,267,서울특별시 영등포구 양평로 76삼성화재 사옥 옆,79,37.535961,126.8983
영등포구,268,서울특별시 영등포구 양평로 58그랜드컨벤션센터 앞,79,37.534718,126.900002
영등포구,270,서울특별시 영등포구 여의나루로 76증권거래소후문교차로,185,37.522343,126.92710100000001
영등포구,271,서울특별시 영등포구 여의동로 48샛강생태공원장문자센터 앞,191,37.518963,126.92161599999999
영등포구,272,서울특별시 영등포구 당산로52길 3당산육갑문,79,37.535339,126.903679
영등포구,274,서울특별시 영등포구 경인로 846영등포역지하쇼핑센타 5번출구,27,37.516651,126.90798999999998
영등포구,275,서울특별시 영등포구 선유서로 76신동아아파트,183,37.522816,126.885651
영등포구,276,서울특별시 영등포구 경인로112길 1SK영등포주유소,231,37.518284,126.912636
영등포구,277,서울특별시 영등포구 영중로 22영등포뉴타운지하상가 2번게이트,27,37.520119,126.90516699999999
영등포구,278,서울특별시 영등포구 도영로 18쌍용플레티넘오피스텔,251,37.507931,126.895233
영등포구,279,서울특별시 영등포구 도신로29길 28영등포 푸르지오 아파트,111,37.513228999999995,126.90446499999999
영등포구,280,서울특별시 영등포구 선유로 213선유중학교 정문,118,37.532101000000004,126.89443999999999
영등포구,281,서울특별시 영등포구 가마산로 315신동아아파트 앞,126,37.498241,126.89398200000001
영등포구,282,서울특별시 영등포구 시흥대로 617신한은행,336,37.48753,126.904877
영등포구,283,서울특별시 영등포구 양산로 213아크로타워 스퀘어(영등포시장),27,37.522518,126.907219
영등포구,284,서울특별시 영등포구 문래로 180센트럴 푸르지오 시티 앞,27,37.518211,126.902229
영등포구,285,서울특별시 영등포구 가마산로 343대림3동사거리(하나은행),449,37.499859,126.89724
영등포구,286,서울특별시 영등포구 대림로 153우성아파트 교차로,80,37.494572,126.89975
영등포구,287,서울특별시 영등포구 영중로 107영등포전화국사거리 (서강어린이공원),279,37.525768,126.90573899999998
영등포구,289,서울특별시 영등포구 가마산로 352대림3동사거리,449,37.499809,126.898003
영등포구,291,서울특별시 영등포구 경인로 775문래동 하이테크 시티,111,37.513851,126.89888
영등포구,292,서울특별시 영등포구 도신로29길 28영일 어린이공원,111,37.51012,126.904068
용산구,800,서울특별시 용산구 원효로4가 109-10목월공원 앞,44,37.532433000000005,126.954742
용산구,802,서울특별시 용산구 한남동 726-494한강진역 2번 출구 앞,240,37.541153,127.00221299999998
용산구,803,서울특별시 용산구 한남동 725-17한남초교 앞 보도육교,240,37.538139,127.004097
용산구,805,서울특별시 용산구 문배동 34-10문배어린이공원 앞,281,37.536758,126.970001
용산구,806,서울특별시 용산구 한강로3가 16-8전자랜드 본관 앞,245,37.533066,126.96073200000001
용산구,807,서울특별시 용산구 동자동 14-229서울역 12번 출구 앞,382,37.552277000000004,126.97268700000001
용산구,808,서울특별시 용산구 서빙고동 235-5서빙고동 금호맨션 앞,157,37.520503999999995,126.98973799999999
용산구,809,서울특별시 용산구 독서당로 18한남 유수지 복개주차장,288,37.530167,127.00743899999999
용산구,810,서울특별시 용산구 용산동2가 5-1812이태원지하보도,323,37.53841,126.986649
용산구,811,서울특별시 용산구 용산동2가 6-7녹사평역1번출구,323,37.53508,126.985382
용산구,812,서울특별시 용산구 용산동1가 8-4용산전쟁기념관,230,37.53484,126.97766100000001
용산구,813,서울특별시 용산구 한강로1가 228-1삼각지역 3번출구,281,37.533512,126.972275
용산구,815,서울특별시 용산구 이촌동301-5LIG강촌아파트 103동앞,438,37.518509,126.978798
용산구,816,서울특별시 용산구 한강대로 115신용산역 6번출구 앞,485,37.530148,126.968483
용산구,817,서울특별시 용산구 한강대로 161삼각지역 4번출구 앞,281,37.533451,126.971733
용산구,818,서울특별시 용산구 청파로47길 100숙명여대 입구 교차로,181,37.544895000000004,126.96938300000001
용산구,819,서울특별시 용산구 원효로97길 33-4선린인터넷 고등학교,181,37.541653000000004,126.970505
용산구,820,서울특별시 용산구 한강대로 349청파동입구 교차로,382,37.549026,126.971947
용산구,822,서울특별시 용산구 이촌로 219이촌1동 마을공원,269,37.522040999999994,126.965523
용산구,823,서울특별시 용산구 효창원로 161효창동주민센터 앞,379,37.542320000000004,126.96196
용산구,825,서울특별시 용산구 서빙고로 279서빙고동 주민센터 앞,157,37.520336,126.99426299999999
용산구,826,서울특별시 용산구 만리재로 202서울역 서부교차로,217,37.555367,126.968643
용산구,827,서울특별시 용산구 두텁바위로 54-99국군복지단,230,37.541885,126.97966000000001
용산구,828,서울특별시 용산구 한강대로 289숙대입구역 8번,181,37.544078999999996,126.97200000000001
용산구,829,서울특별시 용산구 한강대로 23베르가모앞,269,37.52293,126.961693
용산구,830,서울특별시 용산구 원효로 35청암자이아파트앞,44,37.534424,126.94856999999999
용산구,831,서울특별시 용산구 이태원로 134이태원관광특구입구,323,37.534279,126.988564
용산구,832,서울특별시 용산구 이촌로71길 24이촌1동 주민센터 뒤,329,37.521282,126.97346499999999
용산구,834,서울특별시 용산구 백범로 지하 287효창공원앞역 3번출구 뒤,379,37.539009,126.96138
용산구,835,서울특별시 용산구 한강대로77길 18남영역 건너편,181,37.541981,126.971542
용산구,836,서울특별시 용산구 원효로 74현대자동차서비스 앞,44,37.531422,126.9515
용산구,837,서울특별시 용산구 서빙고로 417한남나들목 입구,288,37.52906,127.006729
용산구,838,서울특별시 용산구 한강대로 지하 306숙대입구역 4번출구,181,37.54446,126.97238899999999
용산구,840,서울특별시 용산구 서빙고로 67용산 파크타워 앞,329,37.523651,126.97026799999999
용산구,841,서울특별시 용산구 한강대로 100신용산역 1번 출구,485,37.52961,126.96887199999999
용산구,844,서울특별시 용산구 이촌로14길 7이촌2동 동원베네스트 아파트 앞,496,37.527149,126.95516200000002
용산구,845,서울특별시 용산구 새창로 181선인상가,245,37.5327,126.964378
은평구,900,서울특별시 은평구 녹번동 85-4은평예술회관,277,37.603943,126.927696
은평구,901,서울특별시 은평구 응암동 84-14응암1동사무소,277,37.600975,126.926956
은평구,902,서울특별시 은평구 진관동 45-21진관동 은빛초등학교,143,37.643108000000005,126.918221
은평구,903,서울특별시 은평구 진관동 13-20은평뉴타운 아이파크,41,37.645866,126.92739099999999
은평구,904,서울특별시 은평구 진관동 5-8은평뉴타운 푸르지오,41,37.648674,126.930702
은평구,905,서울특별시 은평구 진관동 86-31구파발역 2번출구,233,37.636234,126.918999
은평구,906,서울특별시 은평구 대조동 207-8연신내역 5번출구,224,37.61721,126.919579
은평구,907,서울특별시 은평구 역촌동 43-11CJ 드림시티,16,37.599491,126.91686200000001
은평구,908,서울특별시 은평구 갈현동 536-8구산역 4번출구,216,37.613186,126.917351
은평구,909,서울특별시 은평구 응암동 761-9백련산 힐스테이트 3차,99,37.586994,126.922882
은평구,911,서울특별시 은평구 녹번동 153-31은평평화공원(역촌역4번출구),380,37.605583,126.92293500000001
은평구,912,서울특별시 은평구 응암동 604-5응암오거리,437,37.589661,126.916946
은평구,913,서울특별시 은평구 응암동 90-15이마트 은평점,16,37.6007,126.920128
은평구,914,서울특별시 은평구 응암동 610-3새절역 2번출구,437,37.590796999999995,126.913651
은평구,915,서울특별시 은평구 증산동 199-8증산역 4번출구,320,37.584381,126.909897
은평구,916,서울특별시 은평구 역촌동 15-40평생학습관 앞,380,37.607849,126.92132600000001
은평구,917,서울특별시 은평구 녹번동 55녹번역 4번출구,312,37.601299,126.935349
은평구,919,서울특별시 은평구 녹번동 15-2서울혁신파크,83,37.607025,126.933311
은평구,921,서울특별시 은평구 진관동 242-14신도고등학교,421,37.630016,126.91902900000001
은평구,922,서울특별시 은평구 대조동 227-2연신내역 4번출구,224,37.617802000000005,126.921967
은평구,923,서울특별시 은평구 불광동 355국민은행 연서지점,21,37.620948999999996,126.92563600000001
은평구,924,서울특별시 은평구 진관동 161-9메뚜기다리,243,37.628516999999995,126.929581
은평구,925,서울특별시 은평구 불광동 285-43불광역 2번출구,83,37.609566,126.930977
은평구,926,서울특별시 은평구 불광동 276-6불광역 8번출구,83,37.611179,126.92966499999999
은평구,927,서울특별시 은평구 불광동 304-5연신내역 3번출구 인근,224,37.617855,126.922523
은평구,928,서울특별시 은평구 진관동 133-29은평역사한옥박물관,462,37.641315000000006,126.938042
은평구,930,서울특별시 은평구 역촌동 41-7구 서부경찰서 건너편,16,37.601662,126.920303
은평구,931,서울특별시 은평구 역촌동 45-34역촌파출소,16,37.604735999999995,126.91533700000001
은평구,932,서울특별시 은평구 연서로 117예일여중,216,37.610003999999996,126.916397
은평구,933,서울특별시 은평구 서오릉로 163LG서비스 역촌점,216,37.612484,126.914879
은평구,934,서울특별시 은평구 신사동 41-3신사동 성당,344,37.597141,126.909599
은평구,935,서울특별시 은평구 역촌동 17-55역촌역 1번 출구,380,37.605202,126.92211200000001
은평구,937,서울특별시 은평구 진관동 30-23상림마을 롯데캐슬2단지 옆,41,37.645851,126.923798
은평구,938,서울특별시 진관동 44-28 금암 문화공원,143,37.644684000000005,126.918457
은평구,939,서울특별시 응암동 82-31은평구청 교차로,277,37.6017,126.92742199999999
은평구,941,서울특별시 진관동 141-27은평뉴타운 도서관,301,37.63726,126.933701
은평구,942,서울특별시 진관동 16-4상림마을 생태공원,41,37.644081,126.92928300000001
은평구,943,서울특별시 녹번동 84은평구청 보건소,277,37.602402000000005,126.92865
은평구,945,서울특별시 은평구 진관동 149-17기자촌 사거리,301,37.63414,126.93234299999999
은평구,946,서울특별시 불광로 129독바위역 ,350,37.618439,126.932884
은평구,947,서울특별시 불광동 484-165연신내 선일하이츠빌 정류소,224,37.622669,126.919991
은평구,948,서울특별시 증산동 239디지털미디어 시티역 4번출구,66,37.577202,126.902351
은평구,949,서울특별시 불광동 487-2연신내역 1번 출구 ,224,37.619781,126.92080700000001
은평구,950,서울특별시 역촌동 1-57구산역 2번 출구 ,216,37.610779,126.917351
은평구,951,서울특별시 갈현동 389-15 연신내역 6번출구옆,224,37.619305,126.920593
은평구,952,서울특별시 불광동 400-4번지서울연신중학교,21,37.62265,126.925247
은평구,953,서울특별시 불광동 73-1번지 서울연신초등학교,243,37.625778000000004,126.92881799999999
은평구,954,서울특별시 은평구 진관3로 77은평뉴타운구파발9단지,143,37.642609,126.92147800000001
은평구,956,서울특별시 은평구 응암로 248응암시장교차로,151,37.594376000000004,126.918159
은평구,958,서울특별시 은평구 은평로 136신한은행 응암동 지점 앞,16,37.600361,126.92281299999999
은평구,959,서울특별시 은평구 진관3로 73-17구파발10단지 인근,143,37.643661,126.91455800000001
은평구,960,서울특별시 은평구 진관2로 지하 15-25구파발역 환승센터,233,37.638252,126.91945600000001
은평구,961,서울특별시 은평구 통일로 732불광역 9번 출구,83,37.61097,126.92981
은평구,962,서울특별시 은평구 진관2로 15-46은평구 진관2로 15-46,233,37.639259,126.918907
은평구,963,서울특별시 은평구 불광로 90대호프라자아파트,350,37.614429,126.932579
은평구,964,서울특별시 은평구 통일로 796북한산힐스테이트 7차아파트,21,37.616112,126.925041
은평구,965,서울특별시 은평구 백련산로 90서울특별시 은평병원,151,37.593478999999995,126.92318700000001
은평구,966,서울특별시 은평구 통일로 684서울혁신파크1,83,37.609032,126.93467700000001
은평구,967,서울특별시 은평구 통일로 684서울혁신파크2,83,37.608909999999995,126.932419
은평구,968,서울특별시 은평구 진관4로 48-50은평뉴타운 상림마을 13단지,41,37.64209,126.92941299999998
종로구,301,서울특별시 종로구 사직로 지하130경복궁역 7번출구 앞,169,37.575794,126.971451
종로구,302,서울특별시 종로구 사직로 지하130경복궁역 4번출구 뒤,169,37.575947,126.97406000000001
종로구,303,서울특별시 종로구 세종대로 지하189세종로공원,14,37.57177,126.97466299999999
종로구,304,서울특별시 종로구 세종대로 지하172광화문역 2번출구 앞,14,37.572113,126.977577
종로구,305,서울특별시 종로구 삼봉로 43종로구청 옆,14,37.572582000000004,126.97835500000001
종로구,306,서울특별시 종로구 세종대로 지하172광화문역 7번출구 앞,14,37.570808,126.97643300000001
종로구,307,서울특별시 종로구 새문안로 55서울역사박물관 앞,7,37.57,126.9711
종로구,308,서울특별시 종로구 새문안로 82광화문S타워 앞,14,37.569969,126.97393799999999
종로구,309,서울특별시 종로구 세종대로 지하172광화문역 6번출구 옆,14,37.569889,126.976456
종로구,314,서울특별시 종로구 삼청로 30국립현대미술관 서울관,401,37.579708000000004,126.98085800000001
종로구,315,서울특별시 종로구 율곡로 33신한은행 안국역지점 옆,61,37.57597,126.98306299999999
종로구,316,서울특별시 종로구 종로 47종각역 1번출구 앞,396,37.570396,126.98178899999999
종로구,326,서울특별시 종로구 율곡로 지하62안국역 5번출구 앞,61,37.576240999999996,126.98616000000001
종로구,327,서울특별시 종로구 삼일대로 428낙원상가 옆,141,37.573357,126.98746499999999
종로구,328,서울특별시 종로구 종로 99탑골공원 앞,141,37.570396,126.98818999999999
종로구,329,서울특별시 종로구 청계천로 93청계2가 사거리 옆,141,37.568344,126.98789199999999
종로구,334,서울특별시 종로구 종로 지하129종로3가역 2번출구 뒤,141,37.570599,126.99179099999999
종로구,335,서울특별시 종로구 종로 지하12915번출구 앞,141,37.570198,126.991257
종로구,337,서울특별시 종로구 창경궁로 185창경궁 입구,36,37.578979,126.996475
종로구,338,서울특별시 종로구 창경궁로 109세운스퀘어 앞,85,37.570957,126.997124
종로구,339,서울특별시 종로구 종로 185종로4가 사거리,85,37.571068,126.99819199999999
종로구,340,서울특별시 종로구 창경궁로 271-1혜화동 로터리,93,37.585629,127.000679
종로구,341,서울특별시 종로구 대학로 지하120혜화역 3번출구 뒤,93,37.58157,127.00178500000001
종로구,342,서울특별시 종로구 대학로 104대학로 마로니에공원,93,37.579784000000004,127.00253300000001
종로구,343,서울특별시 종로구 율곡로 238예일빌딩(율곡로) 앞,2,37.575432,127.00498200000001
종로구,344,서울특별시 종로구 율곡로 259성균관대 E하우스 앞,2,37.574036,127.006721
종로구,345,서울특별시 종로구 김상옥로 29서울보증보험본사 앞,85,37.573307,127.00071000000001
종로구,348,서울특별시 종로구 교북동 10-1독립문역 사거리,297,37.572029,126.96078500000002
종로구,349,서울특별시 종로구 사직로9길 5사직동주민센터,169,37.576332,126.96858999999999
종로구,351,서울특별시 종로구 청운동 108-22청운초교 앞 삼거리,302,37.585079,126.970619
종로구,352,서울특별시 종로구 창덕궁길 191중앙고입구 삼거리,61,37.583416,126.98523700000001
종로구,353,서울특별시 종로구 재동 19재동초교 앞 삼거리,61,37.579388,126.98494699999999
종로구,354,서울특별시 종로구 창덕궁1길 3포르투갈 대사관 앞,61,37.579155,126.98896
종로구,355,서울특별시 종로구 연건동 178-3서울사대부속초교 앞,36,37.576508000000004,127.002457
종로구,356,서울특별시 종로구 대학로 65KT혜화지사 앞,36,37.577145,127.00206000000001
종로구,358,서울특별시 종로구 창경궁로 234성대입구 사거리,93,37.5825,126.998535
종로구,359,서울특별시 종로구 율곡로 169원남동사거리,36,37.576060999999996,126.997681
종로구,361,서울특별시 종로구 숭인동 81-39동묘앞역 1번출구 뒤,338,37.573242,127.01590700000001
종로구,362,서울특별시 종로구 청계천로 407청계8가 사거리,31,37.572224,127.022705
종로구,363,서울특별시 종로구 숭인동 1311신설동역 11번출구 뒤,31,37.575759999999995,127.02283500000001
종로구,364,서울특별시 종로구 지봉로 87창신역 1번출구 앞,433,37.579334,127.015083
종로구,368,서울특별시 종로구 서린동 93-2SK 서린빌딩 앞,396,37.569247999999995,126.98053700000001
종로구,369,서울특별시 종로구 세종로 76-5광화문 시민열린마당,14,37.575493,126.9785
종로구,385,서울특별시 종로구 서린동 26-1종각역 5번출구,396,37.569835999999995,126.982658
종로구,386,서울특별시 종로구 성균관로 91올림픽기념 국민생활관 앞,225,37.590233000000005,126.99852
종로구,388,서울특별시 종로구 혜화동 56동성중학교 앞,93,37.585735,127.00161000000001
종로구,393,서울특별시 종로구 율곡로 지하 308동대문역 8번출구,2,37.570141,127.009377
종로구,394,서울특별시 종로구 경교장길 35경희궁자이 3단지,7,37.56749,126.965919
종로구,395,서울특별시 종로구 송월길 99경희궁 자이 3단지,7,37.568855,126.964561
종로구,397,서울특별시 종로구 종로 지하 200종묘공영주차장 건너편,85,37.570479999999996,126.99663500000001
종로구,446,서울특별시 종로구 홍지문길 1상명대 입구,295,37.600128000000005,126.95783200000001
종로구,447,서울특별시 종로구 진흥로 499신영동 삼거리,295,37.603992,126.961945
종로구,449,서울특별시 종로구 평창문화로 119일성아파트,265,37.608719,126.972862
종로구,450,서울특별시 종로구 효자로13길 45종로구 궁정동 98-2,302,37.583603000000004,126.972549
종로구,451,서울특별시 종로구 청와대로 73종로구 세종로 1-54,401,37.583515000000006,126.97966799999999
종로구,452,서울특별시 종로구 종로 239동대문 종합시장 버스정류장,2,37.571239,127.00441000000001
종로구,453,서울특별시 종로구 종로 지하 200종로5가 지하쇼핑센터 14번출구,85,37.57114,127.000671
종로구,454,서울특별시 종로구 종로 79-1종로2가 버스정류장 (종각방향),141,37.570358,126.986382
종로구,455,서울특별시 종로구 종로 254-1삼익한의원,2,37.570961,127.00605800000001
종로구,456,서울특별시 종로구 종로 383-1숭인2동 주민센터 입구 (이강3대냉면),31,37.574471,127.019829
종로구,457,서울특별시 종로구 율곡로 지하 308종로꾳시장 입구 옆,2,37.57132,127.00721000000001
종로구,458,서울특별시 종로구 세종대로 지하 172광화문역 5번출구,14,37.569939,126.977539
종로구,461,서울특별시 종로구 사직로8길 31서울지방경찰청,169,37.574364,126.972366
중구,300,서울특별시 중구 정동길 2-1정동사거리,7,37.56805,126.96923100000001
중구,310,서울특별시 중구 세종대로 136청계광장 옆,14,37.568878000000005,126.97747
중구,311,서울특별시 중구 세종대로 지하 101서울시청 앞,10,37.566612,126.97747
중구,312,서울특별시 중구 세종대로 지하1011번출구 뒤,10,37.564674,126.97673799999998
중구,313,서울특별시 중구 통일로 13서울역 광장 파출소 옆,234,37.556961,126.97177099999999
중구,318,서울특별시 중구 청계천로 30광교사거리 남측,396,37.568527,126.982552
중구,320,서울특별시 중구 을지로 55명동금융센터 앞,285,37.566223,126.983589
중구,321,서울특별시 중구 을지로 66한국외환은행 본점 앞,285,37.565464,126.98413799999999
중구,322,서울특별시 중구 명동길 74명동성당 앞,285,37.564476,126.98696899999999
중구,324,서울특별시 중구 퇴계로 77신세계백화점 본점 앞,10,37.56134,126.9804
중구,330,서울특별시 중구 남대문로10길 33삼각동 118,285,37.568165,126.984978
중구,332,서울특별시 중구 을지로 100을지로2가 사거리 남측,285,37.56599,126.987793
중구,336,서울특별시 중구 충무로 15티마크호텔 앞,94,37.562618,126.99283600000001
중구,346,서울특별시 중구 마장로 3맥스타일,2,37.569183,127.00988000000001
중구,347,서울특별시 중구 장충단로 지하230동대문역사문화공원역 9번출구 앞,252,37.565331,127.007843
중구,370,서울특별시 중구 서소문로 지하127시청역(2호선) 9번출구 뒤,10,37.563229,126.97483799999999
중구,371,서울특별시 중구 동호로 지하256동대입구역 6번출구 뒤,415,37.558871999999994,127.00553899999998
중구,372,서울특별시 중구 다산로 지하122약수역 4번출구 뒤,366,37.554295,127.0112
중구,373,서울특별시 중구 다산로14길 41약수어린이공원,366,37.555859000000005,127.013855
중구,374,서울특별시 중구 청구로 지하77청구역2번출구 앞,109,37.560474,127.014076
중구,375,서울특별시 중구 다산로40길 37다산 어린이공원,109,37.563717,127.018425
중구,377,서울특별시 중구 세종대로 지하2서울역 4번출구 앞,234,37.557217,126.97300700000001
중구,378,서울특별시 중구 다산로 지하260청계7가 사거리,338,37.569805,127.016953
중구,379,서울특별시 중구 세종대로 지하2서울역9번출구,234,37.556,126.973358
중구,380,서울특별시 중구 동호로 330CJ제일제당 앞,252,37.563866,127.002747
중구,381,서울특별시 중구 장충동2가 200-99장충체육관,415,37.558533000000004,127.00698899999999
중구,382,서울특별시 중구 신당동 357-1약수역 10번출구 앞,366,37.555199,127.010048
중구,383,서울특별시 중구 신당동 99신당역 5번 출구,109,37.565849,127.016403
중구,384,서울특별시 중구 청파로 456종로학원본원 앞,217,37.559779999999996,126.968506
중구,387,서울특별시 중구 을지로 227훈련원공원주차장 앞,252,37.566994,127.003464
중구,389,서울특별시 중구 을지로 지하 178을지로4가역 1번출구,94,37.56673,126.996605
중구,390,서울특별시 중구 퇴계로 212충무로역 1번출구,94,37.56139,126.995354
중구,391,서울특별시 중구 세종대로19길 16정동길 입구,10,37.565437,126.97330500000001
중구,398,서울특별시 중구 을지로 지하 129을지로3가역 3번출구,94,37.566559000000005,126.99243899999999
중구,399,서울특별시 중구 만리재로 175서울역 센트럴 자이아파트,217,37.554482,126.96608700000002
중구,429,서울특별시 중구 다산로 59-1송도병원,489,37.549889,127.007347
중구,430,서울특별시 중구 장충단로 192KEB하나은행 장충동지점,252,37.562172,127.00626399999999
중구,431,서울특별시 중구 청계천로 400청계천 영도교,338,37.5709,127.019524
중랑구,1401,서울특별시 중랑구 동일로 941중랑구 묵동 189-2,213,37.614738,127.07636299999999
중랑구,1402,서울특별시 중랑구 망우로 448금란주차장 앞,105,37.600071,127.102333
중랑구,1403,서울특별시 중랑구 망우로 211중화빌딩,308,37.59425,127.076576
중랑구,1404,서울특별시 중랑구 망우로 233중랑구 중화동 211-3,308,37.595299,127.080032
중랑구,1405,서울특별시 중랑구 망우로55길 11-10망우역 1번출구,304,37.599098,127.092949
중랑구,1406,서울특별시 중랑구 송림길 156망우청소년수련관,229,37.606251,127.10826899999999
중랑구,1407,서울특별시 중랑구 공릉로 12중랑구 묵동 189-4,213,37.611511,127.07788799999999
중랑구,1408,서울특별시 중랑구 동일로 지하 901먹골역 6번출구 앞,213,37.610721999999996,127.077477
중랑구,1410,서울특별시 중랑구 용마산로 285581 번지,177,37.577782,127.09018700000001
중랑구,1411,서울특별시 중랑구 면목로 456중랑구 면목동 282-4,266,37.592541,127.086739
중랑구,1412,서울특별시 중랑구 면목로 434면목초등학교,266,37.590961,127.08706699999999
중랑구,1413,서울특별시 중랑구 신내로 지하 232봉화산역 5번출구 뒤,273,37.617561,127.090309
중랑구,1414,서울특별시 중랑구 사가정로 지하 393중랑구 면목동 495,177,37.581646,127.08843200000001
중랑구,1416,서울특별시 중랑구 면목로 480중랑구 상봉동 160-22,434,37.595219,127.085999
중랑구,1418,서울특별시 중랑구 신내역로1길 164새솔초등학교,146,37.617989,127.110542
중랑구,1420,서울특별시 중랑구 신내로16길 17신내어울공원 앞,273,37.614231,127.096764
중랑구,1421,서울특별시 중랑구 신내로 지하 232신내역 4번출구,73,37.612460999999996,127.103378
중랑구,1422,서울특별시 중랑구 신내역로 213신내우디안아파트 1단지,146,37.620098,127.10646100000001
중랑구,1424,서울특별시 중랑구 송림길 147양원역 2번출구,229,37.606312,127.10774199999999
중랑구,1425,서울특별시 중랑구 용마산로86길 9-27용마문화복지센터,292,37.58746,127.09597
중랑구,1426,서울특별시 중랑구 용마산로 지하 227면목도시개발아파트 1동 앞,425,37.573589,127.086823
중랑구,1427,서울특별시 중랑구 용마산로 지하 227중랑구 면목동 1381,425,37.574298999999996,127.086914
중랑구,1428,서울특별시 중랑구 숙선옹주로 66중랑구 묵동 20-3,88,37.616023999999996,127.085968
중랑구,1429,서울특별시 중랑구 동일로 778동일로 778,363,37.599957,127.08000200000001
중랑구,1430,서울특별시 중랑구 봉화산로 179중랑구 신내동 662-1,342,37.606152,127.092598
중랑구,1431,서울특별시 중랑구 봉화산로 194중랑구 신내동 561,342,37.606499,127.095451
중랑구,1433,서울특별시 중랑구 동일로 지하 797중랑구 중화동 50-3,363,37.602077,127.079582
중랑구,1434,서울특별시 중랑구 사가정로 332홈플러스 면목동점,446,37.579868,127.08236699999999
중랑구,1435,서울특별시 중랑구 용마산로 644능산삼거리,73,37.608681,127.100792
중랑구,1436,서울특별시 중랑구 용마산로129가길 41영풍마드레빌,73,37.605881,127.100632
중랑구,1437,서울특별시 중랑구 동일로 594늘푸른공원 앞,158,37.583420000000004,127.079926
중랑구,1438,서울특별시 중랑구 신내로 지하 232홈플러스 신내점 앞,273,37.616169,127.093483
중랑구,1440,서울특별시 중랑구 동일로 628하나은행,158,37.586372,127.08006999999999
중랑구,1441,서울특별시 중랑구 용마산로136길 33신내능말공원,146,37.616710999999995,127.11073300000001
중랑구,1442,서울특별시 중화동 50-8(구)신한은행 중랑교지점,363,37.598591,127.079819
중랑구,1443,서울특별시 중랑구 망우동 534-23 구립망우청소년독서실,105,37.59552,127.098778
중랑구,1444,서울특별시 면목동 646-4면목4치안센터,386,37.574028000000006,127.08054399999999
중랑구,1445,서울특별시 면목동 197-5용마지구대,446,37.579941,127.079399
중랑구,1446,서울특별시 중랑구 면목동 282-8중랑전화국 교차로,308,37.591301,127.08033
중랑구,1447,서울특별시 면목동 120-2면목역 3번출구,266,37.588902000000004,127.08728
중랑구,1448,서울특별시 상봉동 160-3코스트코 상봉점,304,37.597321,127.089798
중랑구,1449,서울특별시 중랑구 망우로 297상봉역 1번출구,434,37.596558,127.085838
중랑구,1450,서울특별시 노원구 화랑로 지하 510화랑대역 7번출구,88,37.619625,127.08501399999999
중랑구,1451,서울특별시 중랑구 망우로 176중랑세무서,167,37.592758,127.07267
중랑구,1452,서울특별시 중랑구 겸재로 68겸재교진입부,158,37.585654999999996,127.07505
중랑구,1453,서울특별시 중랑구 송림길 172중랑캠핑숲,229,37.604603000000004,127.10925300000001
중랑구,1454,서울특별시 중랑구 동일로 862한국전력공사(동대문 중랑지사),213,37.607349,127.07858999999999
중랑구,1455,서울특별시 중랑구 망우로 297상봉역 2번 출구,434,37.596329,127.085899
중랑구,1456,서울특별시 중랑구 용마산로 494상아빌딩(우림시장 교차로),105,37.595112,127.10032700000001
중랑구,1457,서울특별시 중랑구 겸재로 229동원사거리,292,37.58976,127.09323899999998
중랑구,1458,서울특별시 중랑구 용마산로115길 127용마산로115길 127,304,37.59734,127.09308600000001
중랑구,1459,서울특별시 중랑구 용마산로 313용마한신아파트사거리,177,37.580349,127.092651
